[
{"_id":2638976,"name":"Ruislip","country":"GB","coord":{"lon":-0.42341,"lat":51.573441}},

{"_id":7301040,"name":"Tonyrefail","country":"GB","coord":{"lon":-3.41503,"lat":51.580238}},

{"_id":2653753,"name":"Carmarthenshire","country":"GB","coord":{"lon":-4.16667,"lat":51.833328}},

{"_id":2650353,"name":"East Portlemouth","country":"GB","coord":{"lon":-3.75578,"lat":50.232159}},

{"_id":3333225,"name":"Dundee City","country":"GB","coord":{"lon":-2.91667,"lat":56.466671}},
{"_id":7290647,"name":"Nuneaton and Bedworth District","country":"GB","coord":{"lon":-1.47802,"lat":52.500641}},
{"_id":7291924,"name":"Rhyl","country":"GB","coord":{"lon":-3.47247,"lat":53.31905}},
{"_id":2649140,"name":"Foulridge","country":"GB","coord":{"lon":-2.16864,"lat":53.87579}},
{"_id":2647062,"name":"Hermitage","country":"GB","coord":{"lon":-1.26823,"lat":51.455399}},
{"_id":2648355,"name":"Golcar","country":"GB","coord":{"lon":-1.8557,"lat":53.639919}},
{"_id":2636001,"name":"Thornbury","country":"GB","coord":{"lon":-2.55,"lat":52.23333}},

{"_id":7300065,"name":"Yate","country":"GB","coord":{"lon":-2.40944,"lat":51.54805}},
{"_id":7292818,"name":"Caia Park","country":"GB","coord":{"lon":-2.97767,"lat":53.045219}},
{"_id":7290657,"name":"Worcester District","country":"GB","coord":{"lon":-2.20886,"lat":52.196121}},
{"_id":3333222,"name":"Borough of Wolverhampton","country":"GB","coord":{"lon":-2.11667,"lat":52.583328}},
{"_id":7299965,"name":"Winsford","country":"GB","coord":{"lon":-2.52331,"lat":53.19191}},
{"_id":2634551,"name":"Welwyn Hatfield","country":"GB","coord":{"lon":-0.21667,"lat":51.75}},
{"_id":3333211,"name":"Borough of Trafford","country":"GB","coord":{"lon":-2.33333,"lat":53.416672}},
{"_id":7290632,"name":"Tamworth District","country":"GB","coord":{"lon":-1.6829,"lat":52.62273}},
{"_id":7291961,"name":"Wroughton","country":"GB","coord":{"lon":-1.8056,"lat":51.517849}},
{"_id":7290571,"name":"Dartford District","country":"GB","coord":{"lon":0.24851,"lat":51.43388}},
{"_id":7290673,"name":"South Derbyshire District","country":"GB","coord":{"lon":-1.53296,"lat":52.821999}},
{"_id":3333208,"name":"Borough of Tameside","country":"GB","coord":{"lon":-2.08333,"lat":53.5}},
{"_id":7291795,"name":"Mossley","country":"GB","coord":{"lon":-2.02418,"lat":53.516338}},
{"_id":7294483,"name":"Seaham","country":"GB","coord":{"lon":-1.34838,"lat":54.8391}},
{"_id":7295275,"name":"Sandown","country":"GB","coord":{"lon":-1.14195,"lat":50.661251}},
{"_id":7297739,"name":"Ryton","country":"GB","coord":{"lon":-2.35315,"lat":52.624569}},
{"_id":7290656,"name":"Redditch District","country":"GB","coord":{"lon":-1.94565,"lat":52.279331}},
{"_id":7294048,"name":"Prestatyn","country":"GB","coord":{"lon":-3.40514,"lat":53.334641}},
{"_id":7294693,"name":"Peterlee","country":"GB","coord":{"lon":-1.32905,"lat":54.758461}},
{"_id":7301708,"name":"Penarth","country":"GB","coord":{"lon":-3.18138,"lat":51.43095}},
{"_id":7292284,"name":"Oswestry","country":"GB","coord":{"lon":-3.05832,"lat":52.857101}},
{"_id":7294581,"name":"Northwich","country":"GB","coord":{"lon":-2.51575,"lat":53.255798}},
{"_id":2657122,"name":"Ards District","country":"GB","coord":{"lon":-5.58333,"lat":54.5}},
{"_id":2641519,"name":"Newtownards","country":"GB","coord":{"lon":-5.69092,"lat":54.592361}},
{"_id":7300025,"name":"Newquay","country":"GB","coord":{"lon":-5.07426,"lat":50.424091}},
{"_id":7298888,"name":"Nailsea","country":"GB","coord":{"lon":-2.77756,"lat":51.424}},
{"_id":7293862,"name":"Morley","country":"GB","coord":{"lon":-1.6034,"lat":53.742901}},
{"_id":7293814,"name":"Mirfield","country":"GB","coord":{"lon":-1.69404,"lat":53.673901}},
{"_id":7291605,"name":"Maesteg","country":"GB","coord":{"lon":-3.64713,"lat":51.61528}},
{"_id":7296039,"name":"Sutton","country":"GB","coord":{"lon":-2.0931,"lat":53.227161}},
{"_id":3333218,"name":"City of Westminster","country":"GB","coord":{"lon":-0.16667,"lat":51.5}},
{"_id":7295996,"name":"Sefton","country":"GB","coord":{"lon":-2.97287,"lat":53.50441}},
{"_id":3333227,"name":"East Dunbartonshire","country":"GB","coord":{"lon":-4.2,"lat":55.933331}},
{"_id":3333226,"name":"East Ayrshire","country":"GB","coord":{"lon":-4.25,"lat":55.5}},
{"_id":7296076,"name":"Keynsham","country":"GB","coord":{"lon":-2.49775,"lat":51.41251}},
{"_id":7301693,"name":"Kempston","country":"GB","coord":{"lon":-0.49955,"lat":52.116791}},
{"_id":7299757,"name":"Horwich","country":"GB","coord":{"lon":-2.52379,"lat":53.603069}},
{"_id":7290564,"name":"Dacorum District","country":"GB","coord":{"lon":-0.57377,"lat":51.768509}},
{"_id":7290687,"name":"Hastings District","country":"GB","coord":{"lon":0.58145,"lat":50.867279}},
{"_id":7291323,"name":"Guisborough","country":"GB","coord":{"lon":-1.07738,"lat":54.535629}},
{"_id":7290595,"name":"Great Yarmouth District","country":"GB","coord":{"lon":1.6469,"lat":52.633961}},
{"_id":7290630,"name":"South Staffordshire District","country":"GB","coord":{"lon":-2.15319,"lat":52.604481}},
{"_id":7296623,"name":"Goole","country":"GB","coord":{"lon":-0.87588,"lat":53.70216}},
{"_id":7290556,"name":"Fareham District","country":"GB","coord":{"lon":-1.21114,"lat":50.8535}},
{"_id":7290639,"name":"Epsom and Ewell District","country":"GB","coord":{"lon":-0.26017,"lat":51.335732}},
{"_id":7290641,"name":"Runnymede District","country":"GB","coord":{"lon":-0.53722,"lat":51.394421}},
{"_id":7300545,"name":"Ebbw Vale","country":"GB","coord":{"lon":-3.20482,"lat":51.77298}},
{"_id":7290615,"name":"Broxtowe District","country":"GB","coord":{"lon":-1.25781,"lat":52.973049}},
{"_id":7296192,"name":"Dunstable","country":"GB","coord":{"lon":-0.5173,"lat":51.884651}},
{"_id":3333142,"name":"City of Derby","country":"GB","coord":{"lon":-1.47217,"lat":52.9207}},
{"_id":7300542,"name":"Eccleshill","country":"GB","coord":{"lon":-2.4517,"lat":53.706779}},
{"_id":7291971,"name":"Cwmbran Central","country":"GB","coord":{"lon":-3.02699,"lat":51.641171}},
{"_id":7300082,"name":"Healeyfield","country":"GB","coord":{"lon":-1.8608,"lat":54.830681}},
{"_id":7290582,"name":"Ribble Valley District","country":"GB","coord":{"lon":-2.41624,"lat":53.902439}},
{"_id":7299112,"name":"Sodbury","country":"GB","coord":{"lon":-2.35653,"lat":51.541489}},
{"_id":7296198,"name":"Brymbo","country":"GB","coord":{"lon":-3.08351,"lat":53.074551}},
{"_id":7296060,"name":"Brixham","country":"GB","coord":{"lon":-3.51133,"lat":50.390831}},
{"_id":7296000,"name":"Bracknell","country":"GB","coord":{"lon":-0.75918,"lat":51.406029}},
{"_id":7291483,"name":"Blyth","country":"GB","coord":{"lon":-1.53835,"lat":55.117748}},
{"_id":7299866,"name":"Biggleswade","country":"GB","coord":{"lon":-0.24536,"lat":52.078602}},
{"_id":7298694,"name":"Berkhamsted","country":"GB","coord":{"lon":-0.5578,"lat":51.755138}},
{"_id":7296167,"name":"Bathampton","country":"GB","coord":{"lon":-2.32627,"lat":51.3923}},
{"_id":2641376,"name":"North Down District","country":"GB","coord":{"lon":-5.66667,"lat":54.666672}},
{"_id":7298620,"name":"Bangor","country":"GB","coord":{"lon":-4.13579,"lat":53.222301}},
{"_id":2656408,"name":"Banbridge District","country":"GB","coord":{"lon":-6.16667,"lat":54.333328}},
{"_id":7292321,"name":"Aberystwyth","country":"GB","coord":{"lon":-4.07708,"lat":52.41227}},
{"_id":6690583,"name":"Chalk Farm","country":"GB","coord":{"lon":-0.14987,"lat":51.543129}},
{"_id":7290681,"name":"East Dorset District","country":"GB","coord":{"lon":-1.976,"lat":50.866901}},





{"_id":2643743,"name":"London","country":"GB","coord":{"lon":-0.12574,"lat":51.50853}},

{"_id":2652249,"name":"Coulsdon","country":"GB","coord":{"lon":-0.14088,"lat":51.320019}},
{"_id":2650228,"name":"Edgware","country":"GB","coord":{"lon":-0.27539,"lat":51.612801}},
{"_id":2633975,"name":"Wickham","country":"GB","coord":{"lon":-1.18815,"lat":50.899239}},
{"_id":2640331,"name":"Pevensey","country":"GB","coord":{"lon":0.33963,"lat":50.81966}},

{"_id":2641290,"name":"Northolt","country":"GB","coord":{"lon":-0.36778,"lat":51.54855}},

{"_id":2634341,"name":"City of Westminster","country":"GB","coord":{"lon":-0.11667,"lat":51.5}},
{"_id":2636147,"name":"Teddington","country":"GB","coord":{"lon":-0.33053,"lat":51.422329}},
{"_id":2637490,"name":"Southall","country":"GB","coord":{"lon":-0.3713,"lat":51.508961}},
{"_id":2637063,"name":"Stanmore","country":"GB","coord":{"lon":-0.31667,"lat":51.616669}},
{"_id":2646004,"name":"Isleworth","country":"GB","coord":{"lon":-0.34246,"lat":51.475182}},
{"_id":2640275,"name":"Pinner","country":"GB","coord":{"lon":-0.38216,"lat":51.593842}},
{"_id":2647972,"name":"Greenford","country":"GB","coord":{"lon":-0.35508,"lat":51.52866}},
{"_id":2647550,"name":"Hampton","country":"GB","coord":{"lon":-0.36684,"lat":51.421051}},
{"_id":2633655,"name":"Woodford Green","country":"GB","coord":{"lon":0.02329,"lat":51.609379}},

{"_id":2653229,"name":"Chessington","country":"GB","coord":{"lon":-0.30427,"lat":51.3624}},

{"_id":2637347,"name":"South Petherton","country":"GB","coord":{"lon":-2.80708,"lat":50.948292}},
{"_id":2647297,"name":"Hawick","country":"GB","coord":{"lon":-2.78666,"lat":55.422729}},
{"_id":2648299,"name":"Gorleston-on-Sea","country":"GB","coord":{"lon":1.73069,"lat":52.573009}},
{"_id":2648928,"name":"Galashiels","country":"GB","coord":{"lon":-2.80695,"lat":55.614578}},
{"_id":2654578,"name":"Bromyard","country":"GB","coord":{"lon":-2.50875,"lat":52.190189}},
{"_id":3345093,"name":"Looe","country":"GB","coord":{"lon":-4.45418,"lat":50.35778}},

{"_id":2655603,"name":"Birmingham","country":"GB","coord":{"lon":-1.89983,"lat":52.481419}},





{"_id":2651049,"name":"Dover District","country":"GB","coord":{"lon":1.23333,"lat":51.150002}},
{"_id":7290558,"name":"Hart District","country":"GB","coord":{"lon":-0.8811,"lat":51.275639}},
{"_id":7287910,"name":"Fetcham","country":"GB","coord":{"lon":-0.35582,"lat":51.288792}},
{"_id":2648110,"name":"Greater London","country":"GB","coord":{"lon":-0.16667,"lat":51.5}},

{"_id":7292856,"name":"Sandhurst","country":"GB","coord":{"lon":-0.78636,"lat":51.350281}},
{"_id":2642233,"name":"Morden","country":"GB","coord":{"lon":-0.19837,"lat":51.39822}},

{"_id":3333121,"name":"Barnet","country":"GB","coord":{"lon":-0.21423,"lat":51.65736}},
{"_id":2634895,"name":"Wales","country":"GB","coord":{"lon":-3.5,"lat":52.5}},
{"_id":2653256,"name":"Chepstow","country":"GB","coord":{"lon":-2.67683,"lat":51.640869}},

{"_id":2648152,"name":"Great Braxted","country":"GB","coord":{"lon":0.69901,"lat":51.795292}},

{"_id":2641918,"name":"Nacton","country":"GB","coord":{"lon":1.23589,"lat":52.01825}},

{"_id":2635527,"name":"Tre-groes","country":"GB","coord":{"lon":-4.31667,"lat":52.066669}},
{"_id":7290655,"name":"Malvern Hills District","country":"GB","coord":{"lon":-2.40461,"lat":52.16713}},

{"_id":2649217,"name":"Forest Heath District","country":"GB","coord":{"lon":0.56667,"lat":52.333328}},
{"_id":2647687,"name":"Haddenham","country":"GB","coord":{"lon":0.14827,"lat":52.357891}},

{"_id":7290602,"name":"East Northamptonshire District","country":"GB","coord":{"lon":-0.50664,"lat":52.448132}},
{"_id":3333180,"name":"City of Peterborough","country":"GB","coord":{"lon":-0.25,"lat":52.583328}},

{"_id":2637958,"name":"Shipley","country":"GB","coord":{"lon":-1.76667,"lat":53.833328}},

{"_id":2647282,"name":"Hawkwell","country":"GB","coord":{"lon":0.67347,"lat":51.591949}},

{"_id":2644993,"name":"Lambourn","country":"GB","coord":{"lon":-1.53105,"lat":51.508049}},

{"_id":2644577,"name":"Leven","country":"GB","coord":{"lon":-3,"lat":56.200001}},

{"_id":7290543,"name":"Epping Forest District","country":"GB","coord":{"lon":0.16555,"lat":51.712818}},

{"_id":7290612,"name":"Selby District","country":"GB","coord":{"lon":-1.12659,"lat":53.778111}},

{"_id":2648300,"name":"Goring-by-Sea","country":"GB","coord":{"lon":-0.42194,"lat":50.812389}},

{"_id":2634548,"name":"Wembury","country":"GB","coord":{"lon":-4.07529,"lat":50.32272}},

{"_id":7297945,"name":"Lea","country":"GB","coord":{"lon":-2.49776,"lat":51.8932}},
{"_id":2644766,"name":"Lea","country":"GB","coord":{"lon":-2.5,"lat":51.900002}},

{"_id":3333209,"name":"District of Telford and Wrekin","country":"GB","coord":{"lon":-2.5,"lat":52.75}},
{"_id":7291968,"name":"Wellington","country":"GB","coord":{"lon":-2.51371,"lat":52.70639}},
{"_id":2634573,"name":"Wellington","country":"GB","coord":{"lon":-2.51667,"lat":52.700001}},

{"_id":7290609,"name":"Richmondshire District","country":"GB","coord":{"lon":-1.91612,"lat":54.357288}},

{"_id":3333192,"name":"Borough of Sefton","country":"GB","coord":{"lon":-3,"lat":53.5}},
{"_id":7301053,"name":"Maghull","country":"GB","coord":{"lon":-2.93941,"lat":53.511101}},
{"_id":2643198,"name":"Maghull","country":"GB","coord":{"lon":-2.94117,"lat":53.51619}},

{"_id":2652975,"name":"Clackmannanshire","country":"GB","coord":{"lon":-3.75,"lat":56.166672}},
{"_id":2653939,"name":"Cambus","country":"GB","coord":{"lon":-3.84426,"lat":56.124401}},

{"_id":2647048,"name":"Herstmonceux","country":"GB","coord":{"lon":0.3229,"lat":50.88958}},

{"_id":2641545,"name":"Newton Longville","country":"GB","coord":{"lon":-0.76595,"lat":51.976002}},
{"_id":2644973,"name":"Lancaster","country":"GB","coord":{"lon":-2.76667,"lat":54.116669}},

{"_id":7290555,"name":"Eastleigh District","country":"GB","coord":{"lon":-1.32746,"lat":50.92263}},
{"_id":2641254,"name":"North Stoneham","country":"GB","coord":{"lon":-1.37044,"lat":50.953209}},

{"_id":2648857,"name":"Garrabost","country":"GB","coord":{"lon":-6.21667,"lat":58.216671}},

{"_id":7294063,"name":"Llanelli","country":"GB","coord":{"lon":-4.16522,"lat":51.670731}},
{"_id":2635437,"name":"Trostre","country":"GB","coord":{"lon":-4.13667,"lat":51.67598}},

{"_id":2652297,"name":"Coseley","country":"GB","coord":{"lon":-2.0855,"lat":52.544781}},

{"_id":3333154,"name":"Hillingdon","country":"GB","coord":{"lon":-0.45,"lat":51.5}},

{"_id":7290537,"name":"Cheshire West and Chester","country":"GB","coord":{"lon":-2.73595,"lat":53.163521}},
{"_id":7294598,"name":"Great Boughton","country":"GB","coord":{"lon":-2.85604,"lat":53.189949}},
{"_id":6693608,"name":"Hoole","country":"GB","coord":{"lon":-2.87689,"lat":53.199799}},

{"_id":2648372,"name":"Godalming","country":"GB","coord":{"lon":-0.61725,"lat":51.18462}},

{"_id":7296006,"name":"Filton","country":"GB","coord":{"lon":-2.5739,"lat":51.511299}},
{"_id":2653328,"name":"Charlton","country":"GB","coord":{"lon":-2.6,"lat":51.51667}},



{"_id":8063665,"name":"Branksome","country":"GB","coord":{"lon":-1.92344,"lat":50.732101}},

{"_id":7300649,"name":"Llanllyfni","country":"GB","coord":{"lon":-4.24085,"lat":53.039379}},

{"_id":2644287,"name":"Little Milton","country":"GB","coord":{"lon":-1.10495,"lat":51.702801}},

{"_id":7290613,"name":"Ashfield District","country":"GB","coord":{"lon":-1.25288,"lat":53.089439}},
{"_id":2638215,"name":"Selston","country":"GB","coord":{"lon":-1.30179,"lat":53.07193}},
{"_id":2637358,"name":"South Normanton","country":"GB","coord":{"lon":-1.34262,"lat":53.106369}},

{"_id":7296240,"name":"Llangollen Rural","country":"GB","coord":{"lon":-3.10033,"lat":52.971062}},

{"_id":3333124,"name":"Bexley","country":"GB","coord":{"lon":0.13333,"lat":51.416672}},
{"_id":2655774,"name":"Bexleyheath","country":"GB","coord":{"lon":0.13943,"lat":51.46291}},

{"_id":7292723,"name":"Tilehurst","country":"GB","coord":{"lon":-1.04711,"lat":51.45789}},

{"_id":7291120,"name":"Falmouth","country":"GB","coord":{"lon":-5.07133,"lat":50.14505}},
{"_id":2649715,"name":"Falmouth","country":"GB","coord":{"lon":-5.07113,"lat":50.154411}},

{"_id":2654981,"name":"Bradley in the Moors","country":"GB","coord":{"lon":-1.91204,"lat":52.968681}},

{"_id":2656060,"name":"Beckford","country":"GB","coord":{"lon":-2.03478,"lat":52.020531}},

{"_id":3345130,"name":"Carew Newton","country":"GB","coord":{"lon":-4.82917,"lat":51.705559}},

{"_id":2635750,"name":"Todber","country":"GB","coord":{"lon":-2.28928,"lat":50.980839}},

{"_id":2639524,"name":"Redruth","country":"GB","coord":{"lon":-5.22434,"lat":50.23315}},
{"_id":2647488,"name":"Harecastle","country":"GB","coord":{"lon":-2.25,"lat":53.066669}},
{"_id":3333125,"name":"City and Borough of Birmingham","country":"GB","coord":{"lon":-1.89823,"lat":52.48048}},

{"_id":3333139,"name":"City and Borough of Coventry","country":"GB","coord":{"lon":-1.5,"lat":52.416672}},
{"_id":2649259,"name":"Foleshill","country":"GB","coord":{"lon":-1.48303,"lat":52.439301}},

{"_id":7290621,"name":"Oxford District","country":"GB","coord":{"lon":-1.23854,"lat":51.753151}},

{"_id":7297375,"name":"The Gorge","country":"GB","coord":{"lon":-2.47239,"lat":52.635288}},
{"_id":2652708,"name":"Coalbrookdale","country":"GB","coord":{"lon":-2.49174,"lat":52.63821}},
{"_id":2647601,"name":"Borough of Halton","country":"GB","coord":{"lon":-2.75,"lat":53.333328}},
{"_id":2634311,"name":"Weston Point","country":"GB","coord":{"lon":-2.75649,"lat":53.32642}},
{"_id":2650236,"name":"Edgbaston","country":"GB","coord":{"lon":-1.92115,"lat":52.462299}},
{"_id":7291997,"name":"Newbury","country":"GB","coord":{"lon":-1.32067,"lat":51.390831}},
{"_id":7290590,"name":"Lincoln District","country":"GB","coord":{"lon":-0.55664,"lat":53.220119}},
{"_id":2635586,"name":"Town Moor","country":"GB","coord":{"lon":-1.61667,"lat":54.98333}},
{"_id":2656196,"name":"Basford","country":"GB","coord":{"lon":-1.18333,"lat":52.966671}},
{"_id":2646253,"name":"Ince-in-Makerfield","country":"GB","coord":{"lon":-2.61667,"lat":53.533329}},
{"_id":2647516,"name":"Hanwell","country":"GB","coord":{"lon":-0.33517,"lat":51.518089}},
{"_id":2644100,"name":"Llanelli","country":"GB","coord":{"lon":-4.16191,"lat":51.68195}},
{"_id":2657480,"name":"Allesley","country":"GB","coord":{"lon":-1.57157,"lat":52.426048}},
{"_id":3333187,"name":"Richmond upon Thames","country":"GB","coord":{"lon":-0.33333,"lat":51.416672}},
{"_id":2655984,"name":"Belfast","country":"GB","coord":{"lon":-5.93333,"lat":54.583328}},
{"_id":3333229,"name":"City of Edinburgh","country":"GB","coord":{"lon":-3.19333,"lat":55.94973}},
{"_id":3333136,"name":"Borough of Bury","country":"GB","coord":{"lon":-2.33333,"lat":53.583328}},
{"_id":2641557,"name":"Newton Abbot","country":"GB","coord":{"lon":-3.61186,"lat":50.52858}},
{"_id":3333161,"name":"Borough of Kirklees","country":"GB","coord":{"lon":-1.75,"lat":53.583328}},
{"_id":3333137,"name":"Borough of Calderdale","country":"GB","coord":{"lon":-2,"lat":53.700001}},
{"_id":2635028,"name":"Vale of Glamorgan","country":"GB","coord":{"lon":-3.41667,"lat":51.416672}},
{"_id":2633462,"name":"Wycombe","country":"GB","coord":{"lon":-0.9,"lat":51.583328}},
{"_id":2652586,"name":"Coleraine","country":"GB","coord":{"lon":-6.66667,"lat":55.133331}},
{"_id":2634869,"name":"Wallingford","country":"GB","coord":{"lon":-1.1248,"lat":51.599819}},
{"_id":2636066,"name":"Thame","country":"GB","coord":{"lon":-0.97624,"lat":51.748402}},
{"_id":2654092,"name":"Caernarfon","country":"GB","coord":{"lon":-4.27016,"lat":53.141258}},
{"_id":2645093,"name":"Knutsford","country":"GB","coord":{"lon":-2.37482,"lat":53.302891}},
{"_id":7295999,"name":"Carmarthen","country":"GB","coord":{"lon":-4.33155,"lat":51.856049}},
{"_id":2653755,"name":"Carmarthen","country":"GB","coord":{"lon":-4.30535,"lat":51.855518}},
{"_id":7292911,"name":"Huntingdon","country":"GB","coord":{"lon":-0.18646,"lat":52.34251}},
{"_id":2657060,"name":"Armagh","country":"GB","coord":{"lon":-6.66667,"lat":54.349998}},
{"_id":7291791,"name":"Northwood","country":"GB","coord":{"lon":-1.31093,"lat":50.739151}},
{"_id":2641217,"name":"Northwood","country":"GB","coord":{"lon":-1.31192,"lat":50.74102}},
{"_id":7292855,"name":"Crowthorne","country":"GB","coord":{"lon":-0.77353,"lat":51.375}},
{"_id":7292770,"name":"Finchampstead","country":"GB","coord":{"lon":-0.866,"lat":51.371929}},
{"_id":2649445,"name":"Finchampstead","country":"GB","coord":{"lon":-0.85728,"lat":51.361488}},
{"_id":7298372,"name":"Truro","country":"GB","coord":{"lon":-5.05831,"lat":50.263691}},
{"_id":2635412,"name":"Truro","country":"GB","coord":{"lon":-5.05436,"lat":50.265259}},
{"_id":2656913,"name":"Ash Vale","country":"GB","coord":{"lon":-0.72115,"lat":51.26997}},
{"_id":2655049,"name":"Bowness-on-Windermere","country":"GB","coord":{"lon":-2.91859,"lat":54.363312}},
{"_id":3333239,"name":"Bridgend county borough","country":"GB","coord":{"lon":-3.58333,"lat":51.549999}},
{"_id":7292974,"name":"Leighton-Linslade","country":"GB","coord":{"lon":-0.66606,"lat":51.917469}},
{"_id":7290663,"name":"Barrow-in-Furness District","country":"GB","coord":{"lon":-3.22326,"lat":54.128849}},
{"_id":3333152,"name":"Borough of Hartlepool","country":"GB","coord":{"lon":-1.25,"lat":54.666672}},
{"_id":3333236,"name":"South Lanarkshire","country":"GB","coord":{"lon":-3.83333,"lat":55.583328}},
{"_id":2647570,"name":"Hamilton","country":"GB","coord":{"lon":-4.03333,"lat":55.76667}},
{"_id":7290586,"name":"Hinckley and Bosworth District","country":"GB","coord":{"lon":-1.38402,"lat":52.60778}},
{"_id":2656039,"name":"Bedlington","country":"GB","coord":{"lon":-1.59319,"lat":55.130611}},
{"_id":2636518,"name":"Sunninghill","country":"GB","coord":{"lon":-0.65557,"lat":51.401348}},
{"_id":2651386,"name":"Denbigh","country":"GB","coord":{"lon":-3.41667,"lat":53.183331}},
{"_id":7294638,"name":"Penzance","country":"GB","coord":{"lon":-5.54554,"lat":50.105862}},
{"_id":2640377,"name":"Penzance","country":"GB","coord":{"lon":-5.53715,"lat":50.11861}},
{"_id":7290557,"name":"Gosport District","country":"GB","coord":{"lon":-1.16165,"lat":50.806198}},
{"_id":3333232,"name":"North Ayrshire","country":"GB","coord":{"lon":-4.89647,"lat":55.696548}},
{"_id":2654604,"name":"Brodick","country":"GB","coord":{"lon":-5.14717,"lat":55.57539}},
{"_id":7295818,"name":"Meltham","country":"GB","coord":{"lon":-1.86003,"lat":53.589859}},
{"_id":2640968,"name":"Omagh District","country":"GB","coord":{"lon":-7.25,"lat":54.583328}},
{"_id":2640967,"name":"Omagh","country":"GB","coord":{"lon":-7.3,"lat":54.599998}},
{"_id":7292970,"name":"Glyncorrwg","country":"GB","coord":{"lon":-3.64345,"lat":51.673939}},
{"_id":2657807,"name":"Abergwynfi","country":"GB","coord":{"lon":-3.6026,"lat":51.653549}},
{"_id":7292972,"name":"Pelenna","country":"GB","coord":{"lon":-3.72255,"lat":51.656151}},
{"_id":2640118,"name":"Pontrhydyfen","country":"GB","coord":{"lon":-3.74469,"lat":51.63435}},
{"_id":2642330,"name":"Monkseaton","country":"GB","coord":{"lon":-1.4659,"lat":55.042339}},
{"_id":7296375,"name":"Ystalyfera","country":"GB","coord":{"lon":-3.80508,"lat":51.758041}},
{"_id":2633337,"name":"Ystalyfera","country":"GB","coord":{"lon":-3.78082,"lat":51.767159}},
{"_id":2650941,"name":"Drumcree","country":"GB","coord":{"lon":-6.46667,"lat":54.433331}},
{"_id":7296308,"name":"Milford Haven","country":"GB","coord":{"lon":-5.03444,"lat":51.720711}},
{"_id":2642534,"name":"Milford Haven","country":"GB","coord":{"lon":-5.0341,"lat":51.71278}},
{"_id":3333212,"name":"City and Borough of Wakefield","country":"GB","coord":{"lon":-1.49895,"lat":53.680851}},
{"_id":2638035,"name":"Shepton Mallet","country":"GB","coord":{"lon":-2.54722,"lat":51.18972}},
{"_id":7300410,"name":"Thorne","country":"GB","coord":{"lon":-0.92887,"lat":53.621189}},
{"_id":2635997,"name":"Thorne","country":"GB","coord":{"lon":-0.96308,"lat":53.611221}},
{"_id":2636175,"name":"Tavernspite","country":"GB","coord":{"lon":-4.64111,"lat":51.78194}},
{"_id":7290622,"name":"West Oxfordshire District","country":"GB","coord":{"lon":-1.50136,"lat":51.839882}},
{"_id":2643697,"name":"Long Eaton","country":"GB","coord":{"lon":-1.27136,"lat":52.898548}},
{"_id":2649207,"name":"Forfar","country":"GB","coord":{"lon":-2.89026,"lat":56.643131}},
{"_id":7297451,"name":"Hungerford","country":"GB","coord":{"lon":-1.52201,"lat":51.41671}},
{"_id":2646411,"name":"Hungerford","country":"GB","coord":{"lon":-1.51556,"lat":51.415131}},
{"_id":7294533,"name":"Thornbury","country":"GB","coord":{"lon":-2.55531,"lat":52.237991}},
{"_id":7299856,"name":"Blaengwrach","country":"GB","coord":{"lon":-3.62173,"lat":51.728111}},
{"_id":3345326,"name":"Blaengwrach","country":"GB","coord":{"lon":-3.63915,"lat":51.736851}},
{"_id":7295589,"name":"Olney","country":"GB","coord":{"lon":-0.71375,"lat":52.16486}},
{"_id":2640972,"name":"Olney","country":"GB","coord":{"lon":-0.70201,"lat":52.15345}},
{"_id":7301705,"name":"Harden","country":"GB","coord":{"lon":-1.87311,"lat":53.842739}},
{"_id":2639944,"name":"Sir Powys","country":"GB","coord":{"lon":-3.41667,"lat":52.333328}},
{"_id":2654818,"name":"Brecon","country":"GB","coord":{"lon":-3.38601,"lat":51.947651}},
{"_id":2654817,"name":"Brecon","country":"GB","coord":{"lon":-3.38887,"lat":51.946121}},
{"_id":2641910,"name":"Nairn","country":"GB","coord":{"lon":-3.87973,"lat":57.58094}},
{"_id":6620335,"name":"Frankby","country":"GB","coord":{"lon":-3.13703,"lat":53.372581}},
{"_id":7290624,"name":"Sedgemoor District","country":"GB","coord":{"lon":-2.9619,"lat":51.186409}},
{"_id":2639563,"name":"Redcar","country":"GB","coord":{"lon":-1.05999,"lat":54.61657}},
{"_id":2643314,"name":"Lyme Regis","country":"GB","coord":{"lon":-2.93477,"lat":50.72654}},
{"_id":2647393,"name":"Hartpury","country":"GB","coord":{"lon":-2.29314,"lat":51.924191}},
{"_id":2646472,"name":"Hoylake","country":"GB","coord":{"lon":-3.18066,"lat":53.390461}},
{"_id":7292301,"name":"Crymych","country":"GB","coord":{"lon":-4.63719,"lat":51.96452}},
{"_id":2651796,"name":"Crymych","country":"GB","coord":{"lon":-4.64722,"lat":51.97361}},
{"_id":7294618,"name":"Llysfaen","country":"GB","coord":{"lon":-3.66256,"lat":53.28157}},
{"_id":2643867,"name":"Llysfaen","country":"GB","coord":{"lon":-3.66667,"lat":53.283329}},
{"_id":2650797,"name":"Dumfries and Galloway","country":"GB","coord":{"lon":-3.83333,"lat":55.083328}},
{"_id":2657293,"name":"Annan","country":"GB","coord":{"lon":-3.25647,"lat":54.988392}},
{"_id":2641331,"name":"Northiam","country":"GB","coord":{"lon":0.60026,"lat":50.994389}},
{"_id":7294631,"name":"Marhamchurch","country":"GB","coord":{"lon":-4.51644,"lat":50.79673}},
{"_id":2643040,"name":"Marhamchurch","country":"GB","coord":{"lon":-4.52241,"lat":50.80513}},
{"_id":6945806,"name":"Shepway District","country":"GB","coord":{"lon":1.15391,"lat":51.081741}},
{"_id":2649258,"name":"Folkestone","country":"GB","coord":{"lon":1.18333,"lat":51.083328}},
{"_id":2652418,"name":"Cookstown District","country":"GB","coord":{"lon":-6.66667,"lat":54.666672}},
{"_id":2652417,"name":"Cookstown","country":"GB","coord":{"lon":-6.74595,"lat":54.643051}},
{"_id":2652725,"name":"Clunderwen","country":"GB","coord":{"lon":-4.73167,"lat":51.840561}},
{"_id":2634354,"name":"West Lothian","country":"GB","coord":{"lon":-3.5,"lat":55.916672}},
{"_id":2656169,"name":"Bathgate","country":"GB","coord":{"lon":-3.64398,"lat":55.902039}},
{"_id":2648559,"name":"Glastonbury","country":"GB","coord":{"lon":-2.71797,"lat":51.147289}},
{"_id":2646810,"name":"Hodbarrow","country":"GB","coord":{"lon":-3.25222,"lat":54.195381}},
{"_id":6949212,"name":"Ham","country":"GB","coord":{"lon":-0.30933,"lat":51.436192}},
{"_id":2650725,"name":"Dunglass","country":"GB","coord":{"lon":-2.36667,"lat":55.933331}},
{"_id":2646455,"name":"Hugglescote","country":"GB","coord":{"lon":-1.37179,"lat":52.709759}},
{"_id":6619866,"name":"East Croydon Railway Station","country":"GB","coord":{"lon":-0.0925,"lat":51.375}},
{"_id":2654464,"name":"Bruichladdich","country":"GB","coord":{"lon":-6.36134,"lat":55.766151}},
{"_id":7300017,"name":"Lawhitton Rural","country":"GB","coord":{"lon":-4.32263,"lat":50.621391}},
{"_id":7301014,"name":"Llanfyllin","country":"GB","coord":{"lon":-3.31067,"lat":52.774261}},
{"_id":2644053,"name":"Llanfyllin","country":"GB","coord":{"lon":-3.27187,"lat":52.765701}},
{"_id":7298240,"name":"Epworth","country":"GB","coord":{"lon":-0.83465,"lat":53.538929}},
{"_id":2642486,"name":"Milnathort","country":"GB","coord":{"lon":-3.4193,"lat":56.226879}},
{"_id":2649298,"name":"County of Flintshire","country":"GB","coord":{"lon":-3.16667,"lat":53.25}},
{"_id":7301170,"name":"Mostyn","country":"GB","coord":{"lon":-3.24684,"lat":53.31588}},
{"_id":2644159,"name":"Llandarcy","country":"GB","coord":{"lon":-3.85657,"lat":51.642262}},
{"_id":2640551,"name":"Payhembury","country":"GB","coord":{"lon":-3.29518,"lat":50.80674}},
{"_id":7297046,"name":"Llangamarch","country":"GB","coord":{"lon":-3.58225,"lat":52.08548}},
{"_id":7295209,"name":"Bala","country":"GB","coord":{"lon":-3.60141,"lat":52.91077}},
{"_id":2655692,"name":"Biggar","country":"GB","coord":{"lon":-3.51667,"lat":55.616669}},
{"_id":7293134,"name":"North Lodge","country":"GB","coord":{"lon":-1.55754,"lat":54.873711}},
{"_id":2646228,"name":"Inchture","country":"GB","coord":{"lon":-3.16956,"lat":56.445511}},
{"_id":7293619,"name":"Beddgelert","country":"GB","coord":{"lon":-4.06923,"lat":53.028229}},
{"_id":2657340,"name":"Ampney Crucis","country":"GB","coord":{"lon":-1.905,"lat":51.713989}},
{"_id":7298755,"name":"Maesycwmmer","country":"GB","coord":{"lon":-3.21639,"lat":51.63755}},
{"_id":2638043,"name":"Shepherds Bush","country":"GB","coord":{"lon":-0.23767,"lat":51.51569}},
{"_id":2644290,"name":"Little Massingham","country":"GB","coord":{"lon":0.65888,"lat":52.78561}},
{"_id":7292365,"name":"Bodedern","country":"GB","coord":{"lon":-4.49044,"lat":53.293251}},
{"_id":2652649,"name":"Coedely","country":"GB","coord":{"lon":-3.4163,"lat":51.56189}},





{"_id":7290566,"name":"Hertsmere District","country":"GB","coord":{"lon":-0.27344,"lat":51.68037}},
{"_id":7293816,"name":"Tarbock","country":"GB","coord":{"lon":-2.80607,"lat":53.381989}},
{"_id":7299727,"name":"Gorseinon","country":"GB","coord":{"lon":-4.05247,"lat":51.676842}},
{"_id":2656281,"name":"Barnstaple","country":"GB","coord":{"lon":-4.05808,"lat":51.080219}},

{"_id":7290690,"name":"Braintree District","country":"GB","coord":{"lon":0.58263,"lat":51.91824}},
{"_id":2645841,"name":"Kelvedon","country":"GB","coord":{"lon":0.7057,"lat":51.840069}},



{"_id":2653368,"name":"Chapel en le Frith","country":"GB","coord":{"lon":-1.91291,"lat":53.32407}},

{"_id":2646003,"name":"Islington","country":"GB","coord":{"lon":-0.10304,"lat":51.536221}},



{"_id":7290561,"name":"Test Valley District","country":"GB","coord":{"lon":-1.50004,"lat":51.133259}},

{"_id":2642367,"name":"Mole Valley","country":"GB","coord":{"lon":-0.4,"lat":51.150002}},
{"_id":3333140,"name":"Croydon","country":"GB","coord":{"lon":-0.10574,"lat":51.37664}},

{"_id":6690806,"name":"Cranham","country":"GB","coord":{"lon":0.2659,"lat":51.565651}},

{"_id":3333244,"name":"Monmouthshire","country":"GB","coord":{"lon":-2.83333,"lat":51.75}},
{"_id":7301587,"name":"Chepstow","country":"GB","coord":{"lon":-2.67698,"lat":51.620621}},
{"_id":7290545,"name":"Maldon District","country":"GB","coord":{"lon":0.78731,"lat":51.723282}},

{"_id":7290634,"name":"Ipswich District","country":"GB","coord":{"lon":1.16719,"lat":52.056839}},

{"_id":7299971,"name":"Castor","country":"GB","coord":{"lon":-0.32257,"lat":52.579399}},

{"_id":3333127,"name":"Borough of Blackpool","country":"GB","coord":{"lon":-3.03333,"lat":53.833328}},

{"_id":2647864,"name":"Grindon","country":"GB","coord":{"lon":-2.28333,"lat":55.01667}},

{"_id":7300362,"name":"Shrewton","country":"GB","coord":{"lon":-1.92052,"lat":51.203442}},

{"_id":2645442,"name":"Kingsteignton","country":"GB","coord":{"lon":-3.58333,"lat":50.549999}},

{"_id":2635414,"name":"Trumpington","country":"GB","coord":{"lon":0.11261,"lat":52.172138}},

{"_id":7298375,"name":"Lambourn","country":"GB","coord":{"lon":-1.53186,"lat":51.503609}},

{"_id":2649469,"name":"Fife","country":"GB","coord":{"lon":-3.16667,"lat":56.25}},

{"_id":2646828,"name":"Histon","country":"GB","coord":{"lon":0.10643,"lat":52.251659}},

{"_id":2636533,"name":"Sunbury Common","country":"GB","coord":{"lon":-0.44014,"lat":51.422119}},

{"_id":2640766,"name":"Overstrand","country":"GB","coord":{"lon":1.339,"lat":52.916229}},

{"_id":2657799,"name":"Aberllefenni","country":"GB","coord":{"lon":-3.81667,"lat":52.666672}},

{"_id":2637414,"name":"South Hams District","country":"GB","coord":{"lon":-3.83333,"lat":50.400002}},

{"_id":2647071,"name":"Herefordshire","country":"GB","coord":{"lon":-2.75,"lat":52.083328}},

{"_id":2647077,"name":"Hepworth","country":"GB","coord":{"lon":0.91238,"lat":52.335861}},

{"_id":2653497,"name":"Catterick Camp","country":"GB","coord":{"lon":-1.71667,"lat":54.349998}},

{"_id":7290686,"name":"Eastbourne District","country":"GB","coord":{"lon":0.27629,"lat":50.772659}},
{"_id":2633901,"name":"Willingdon","country":"GB","coord":{"lon":0.255,"lat":50.800079}},

{"_id":2651334,"name":"Derrygonnelly","country":"GB","coord":{"lon":-7.8,"lat":54.433331}},

{"_id":2647198,"name":"Heckmondwike","country":"GB","coord":{"lon":-1.67747,"lat":53.706459}},

{"_id":2657302,"name":"Anlaby","country":"GB","coord":{"lon":-0.40529,"lat":53.742519}},

{"_id":2636429,"name":"Swan Village","country":"GB","coord":{"lon":-2.01667,"lat":52.533329}},



{"_id":7297161,"name":"Cwm Cadnant","country":"GB","coord":{"lon":-4.14981,"lat":53.258709}},
{"_id":2644139,"name":"Llandegfan","country":"GB","coord":{"lon":-4.15,"lat":53.243961}},

{"_id":2649210,"name":"Forest Row","country":"GB","coord":{"lon":0.03262,"lat":51.096409}},

{"_id":3333198,"name":"South Gloucestershire","country":"GB","coord":{"lon":-2.41667,"lat":51.5}},

{"_id":6545316,"name":"Widley","country":"GB","coord":{"lon":-1.05087,"lat":50.855381}},

{"_id":2645340,"name":"Kirby Cross","country":"GB","coord":{"lon":1.2188,"lat":51.84177}},
{"_id":2638821,"name":"Saint Davids","country":"GB","coord":{"lon":-3.35,"lat":56.033329}},

{"_id":7290679,"name":"West Devon District","country":"GB","coord":{"lon":-4.03255,"lat":50.65144}},
{"_id":2645978,"name":"Jacobstowe","country":"GB","coord":{"lon":-4.00637,"lat":50.796459}},

{"_id":2646959,"name":"Highgate","country":"GB","coord":{"lon":0.51667,"lat":51.033329}},

{"_id":2656539,"name":"Ballogie","country":"GB","coord":{"lon":-2.70504,"lat":57.048569}},

{"_id":2634611,"name":"Weeke","country":"GB","coord":{"lon":-1.33333,"lat":51.066669}},

{"_id":2651181,"name":"Doddington","country":"GB","coord":{"lon":0.06017,"lat":52.496712}},

{"_id":7301166,"name":"Valley","country":"GB","coord":{"lon":-4.55395,"lat":53.288288}},
{"_id":2635022,"name":"Valley","country":"GB","coord":{"lon":-4.56644,"lat":53.284901}},
{"_id":2646658,"name":"Honiton","country":"GB","coord":{"lon":-3.18899,"lat":50.799599}},

{"_id":2646355,"name":"Hurstpierpoint","country":"GB","coord":{"lon":-0.18007,"lat":50.93388}},

{"_id":7290658,"name":"Wychavon District","country":"GB","coord":{"lon":-2.01531,"lat":52.179901}},

{"_id":2649366,"name":"Fishponds","country":"GB","coord":{"lon":-2.52361,"lat":51.48167}},

{"_id":2640500,"name":"Pembrokeshire","country":"GB","coord":{"lon":-4.91667,"lat":51.833328}},

{"_id":2653211,"name":"Chettisham","country":"GB","coord":{"lon":0.2756,"lat":52.42263}},

{"_id":7294442,"name":"Redruth","country":"GB","coord":{"lon":-5.22912,"lat":50.23864}},

{"_id":2647262,"name":"Hayes","country":"GB","coord":{"lon":0.01905,"lat":51.377781}},

{"_id":7290601,"name":"Daventry District","country":"GB","coord":{"lon":-1.0337,"lat":52.309879}},
{"_id":2636909,"name":"Stirling","country":"GB","coord":{"lon":-4.23386,"lat":56.115318}},
{"_id":3333231,"name":"Glasgow City","country":"GB","coord":{"lon":-4.25,"lat":55.866669}},
{"_id":2638926,"name":"Rutherglen","country":"GB","coord":{"lon":-4.21376,"lat":55.82885}},
{"_id":2640156,"name":"Polmadie","country":"GB","coord":{"lon":-4.24181,"lat":55.83699}},
{"_id":3333224,"name":"Aberdeen City","country":"GB","coord":{"lon":-2.16667,"lat":57.166672}},
{"_id":2635630,"name":"Torry","country":"GB","coord":{"lon":-2.08672,"lat":57.136959}},
{"_id":7302137,"name":"West Ealing","country":"GB","coord":{"lon":-0.3196,"lat":51.51075}},
{"_id":7290565,"name":"East Hertfordshire District","country":"GB","coord":{"lon":0.00761,"lat":51.865219}},
{"_id":6621558,"name":"Hockerill","country":"GB","coord":{"lon":0.17021,"lat":51.86692}},
{"_id":2645758,"name":"Keston","country":"GB","coord":{"lon":0.02747,"lat":51.36219}},
{"_id":2641373,"name":"North East Derbyshire","country":"GB","coord":{"lon":-1.5,"lat":53.200001}},
{"_id":2637483,"name":"South Bank","country":"GB","coord":{"lon":-1.15,"lat":54.566669}},
{"_id":7300102,"name":"Allesley","country":"GB","coord":{"lon":-1.58084,"lat":52.43895}},
{"_id":2642316,"name":"Monkwearmouth","country":"GB","coord":{"lon":-1.3823,"lat":54.914551}},
{"_id":3333223,"name":"City of Belfast","country":"GB","coord":{"lon":-5.91667,"lat":54.583328}},
{"_id":3333126,"name":"Borough of Blackburn with Darwen","country":"GB","coord":{"lon":-2.46667,"lat":53.666672}},
{"_id":2638315,"name":"Seacombe","country":"GB","coord":{"lon":-3.01781,"lat":53.409569}},
{"_id":7290534,"name":"Bedford","country":"GB","coord":{"lon":-0.45316,"lat":52.188309}},
{"_id":7290675,"name":"Exeter District","country":"GB","coord":{"lon":-3.50945,"lat":50.71677}},
{"_id":2657436,"name":"Alphington","country":"GB","coord":{"lon":-3.53168,"lat":50.698528}},
{"_id":7290618,"name":"Newark and Sherwood District","country":"GB","coord":{"lon":-0.92049,"lat":53.108681}},
{"_id":2633351,"name":"City of York","country":"GB","coord":{"lon":-1.09142,"lat":53.963959}},
{"_id":3333216,"name":"Borough of Warrington","country":"GB","coord":{"lon":-2.58333,"lat":53.416672}},
{"_id":2647126,"name":"Hempstead","country":"GB","coord":{"lon":-2.26667,"lat":51.849998}},
{"_id":3333165,"name":"City of Leicester","country":"GB","coord":{"lon":-1.13333,"lat":52.633331}},
{"_id":7293012,"name":"Shavington cum Gresty","country":"GB","coord":{"lon":-2.45214,"lat":53.06834}},
{"_id":3333246,"name":"City of Newport","country":"GB","coord":{"lon":-3,"lat":51.583328}},
{"_id":7293037,"name":"Mollington","country":"GB","coord":{"lon":-2.92747,"lat":53.227242}},
{"_id":6698331,"name":"Blacon","country":"GB","coord":{"lon":-2.9253,"lat":53.208321}},
{"_id":7295925,"name":"Kirkburton","country":"GB","coord":{"lon":-1.69371,"lat":53.628948}},
{"_id":2634723,"name":"Warwickshire","country":"GB","coord":{"lon":-1.58333,"lat":52.333328}},
{"_id":2638663,"name":"Salisbury","country":"GB","coord":{"lon":-1.80924,"lat":51.079708}},
{"_id":2653515,"name":"Cathays","country":"GB","coord":{"lon":-3.2,"lat":51.5}},
{"_id":2634451,"name":"West Drayton","country":"GB","coord":{"lon":-0.46667,"lat":51.5}},
{"_id":2645016,"name":"Laleham","country":"GB","coord":{"lon":-0.48936,"lat":51.409592}},
{"_id":2650079,"name":"Elmbridge District","country":"GB","coord":{"lon":-0.4,"lat":51.349998}},
{"_id":2656943,"name":"Ashleworth","country":"GB","coord":{"lon":-2.27543,"lat":51.92905}},
{"_id":7290576,"name":"Burnley District","country":"GB","coord":{"lon":-2.22584,"lat":53.773918}},
{"_id":2636617,"name":"Stroud","country":"GB","coord":{"lon":-2.2,"lat":51.75}},
{"_id":7291575,"name":"Cwmbwrla","country":"GB","coord":{"lon":-3.95508,"lat":51.639751}},
{"_id":6621401,"name":"Cwmbwrla","country":"GB","coord":{"lon":-3.96085,"lat":51.637138}},
{"_id":7298046,"name":"Orton Longueville","country":"GB","coord":{"lon":-0.28702,"lat":52.555241}},
{"_id":2639018,"name":"Royston","country":"GB","coord":{"lon":-0.02438,"lat":52.048321}},
{"_id":7290626,"name":"Taunton Deane District","country":"GB","coord":{"lon":-3.14856,"lat":51.004211}},
{"_id":7296114,"name":"Humberston","country":"GB","coord":{"lon":-0.01549,"lat":53.527859}},
{"_id":2646435,"name":"Humberston","country":"GB","coord":{"lon":-0.02465,"lat":53.530361}},
{"_id":2652587,"name":"Coleraine District","country":"GB","coord":{"lon":-6.66667,"lat":55.083328}},
{"_id":2653191,"name":"Chichester District","country":"GB","coord":{"lon":-0.78333,"lat":50.916672}},
{"_id":7297566,"name":"Knutsford","country":"GB","coord":{"lon":-2.36549,"lat":53.303341}},
{"_id":2657061,"name":"Armagh District","country":"GB","coord":{"lon":-6.5,"lat":54.333328}},
{"_id":6690875,"name":"Norwood Green","country":"GB","coord":{"lon":-0.37628,"lat":51.495392}},
{"_id":7290640,"name":"Guildford District","country":"GB","coord":{"lon":-0.56621,"lat":51.25182}},
{"_id":2654410,"name":"Buckingham","country":"GB","coord":{"lon":-0.98779,"lat":51.99968}},
{"_id":3333176,"name":"North Lincolnshire","country":"GB","coord":{"lon":-0.5,"lat":53.583328}},
{"_id":7296014,"name":"Cardigan","country":"GB","coord":{"lon":-4.65469,"lat":52.084251}},
{"_id":2653818,"name":"Cardigan","country":"GB","coord":{"lon":-4.65906,"lat":52.084728}},
{"_id":2651391,"name":"Delph","country":"GB","coord":{"lon":-2.11667,"lat":52.466671}},
{"_id":7290689,"name":"Basildon District","country":"GB","coord":{"lon":0.47361,"lat":51.590019}},
{"_id":3333131,"name":"City and Borough of Bradford","country":"GB","coord":{"lon":-1.83333,"lat":53.833328}},
{"_id":7301702,"name":"Keighley","country":"GB","coord":{"lon":-1.93194,"lat":53.86768}},
{"_id":3333188,"name":"Borough of Rochdale","country":"GB","coord":{"lon":-2.16667,"lat":53.583328}},
{"_id":7290620,"name":"Cherwell District","country":"GB","coord":{"lon":-1.2835,"lat":51.974251}},
{"_id":2646127,"name":"Inverclyde","country":"GB","coord":{"lon":-4.75,"lat":55.900002}},
{"_id":2647948,"name":"Greenock","country":"GB","coord":{"lon":-4.76121,"lat":55.94838}},
{"_id":7290580,"name":"Pendle District","country":"GB","coord":{"lon":-2.1879,"lat":53.878769}},
{"_id":7290684,"name":"West Dorset District","country":"GB","coord":{"lon":-2.61023,"lat":50.794552}},
{"_id":7299867,"name":"Neath","country":"GB","coord":{"lon":-3.79898,"lat":51.65432}},
{"_id":7290563,"name":"Broxbourne District","country":"GB","coord":{"lon":-0.04821,"lat":51.730259}},
{"_id":2639494,"name":"Renfrewshire","country":"GB","coord":{"lon":-4.5,"lat":55.833328}},
{"_id":2650128,"name":"Elderslie","country":"GB","coord":{"lon":-4.48598,"lat":55.833271}},
{"_id":7297568,"name":"Little Stanney","country":"GB","coord":{"lon":-2.88331,"lat":53.262939}},
{"_id":7299167,"name":"Ryde","country":"GB","coord":{"lon":-1.17024,"lat":50.724129}},
{"_id":7290680,"name":"Christchurch District","country":"GB","coord":{"lon":-1.77639,"lat":50.76453}},
{"_id":7290585,"name":"Harborough District","country":"GB","coord":{"lon":-1.00808,"lat":52.538181}},
{"_id":6693123,"name":"Churchtown","country":"GB","coord":{"lon":-2.9821,"lat":53.660709}},
{"_id":2654412,"name":"Buckhurst Hill","country":"GB","coord":{"lon":0.03262,"lat":51.624088}},
{"_id":2636511,"name":"Surrey Heath","country":"GB","coord":{"lon":-0.66199,"lat":51.33585}},
{"_id":7294543,"name":"Hereford","country":"GB","coord":{"lon":-2.72365,"lat":52.05302}},
{"_id":7297742,"name":"Denbigh","country":"GB","coord":{"lon":-3.41528,"lat":53.187599}},
{"_id":2637035,"name":"Stanwell","country":"GB","coord":{"lon":-0.47812,"lat":51.45414}},
{"_id":7290671,"name":"Erewash District","country":"GB","coord":{"lon":-1.3576,"lat":52.93766}},
{"_id":7301521,"name":"Hermitage","country":"GB","coord":{"lon":-1.25947,"lat":51.450119}},
{"_id":2637753,"name":"Skelmanthorpe","country":"GB","coord":{"lon":-1.65173,"lat":53.590569}},
{"_id":7299979,"name":"Bodmin","country":"GB","coord":{"lon":-4.71603,"lat":50.467758}},
{"_id":2655273,"name":"Bodmin","country":"GB","coord":{"lon":-4.7243,"lat":50.471512}},
{"_id":2647101,"name":"Henley on Thames","country":"GB","coord":{"lon":-0.9,"lat":51.533329}},
{"_id":2642992,"name":"Marsden","country":"GB","coord":{"lon":-1.91667,"lat":53.599998}},
{"_id":7290623,"name":"Mendip District","country":"GB","coord":{"lon":-2.54222,"lat":51.193981}},
{"_id":2646613,"name":"Horbury","country":"GB","coord":{"lon":-1.56014,"lat":53.660511}},
{"_id":2635697,"name":"Tong","country":"GB","coord":{"lon":-1.66426,"lat":53.773472}},
{"_id":7299873,"name":"Maulden","country":"GB","coord":{"lon":-0.45542,"lat":52.028851}},
{"_id":2642902,"name":"Maulden","country":"GB","coord":{"lon":-0.46975,"lat":52.030628}},
{"_id":7290669,"name":"Chesterfield District","country":"GB","coord":{"lon":-1.3912,"lat":53.25544}},
{"_id":2651983,"name":"Crieff","country":"GB","coord":{"lon":-3.83891,"lat":56.372681}},
{"_id":2634275,"name":"Westruther","country":"GB","coord":{"lon":-2.58452,"lat":55.741989}},
{"_id":2644642,"name":"Leiston","country":"GB","coord":{"lon":1.57757,"lat":52.206108}},
{"_id":2656402,"name":"Banff","country":"GB","coord":{"lon":-2.52964,"lat":57.664768}},
{"_id":2640140,"name":"Ponders End","country":"GB","coord":{"lon":-0.04652,"lat":51.644501}},
{"_id":6457407,"name":"Argyll and Bute","country":"GB","coord":{"lon":-5.43679,"lat":56.03693}},
{"_id":2643312,"name":"Lymington","country":"GB","coord":{"lon":-1.5443,"lat":50.757671}},
{"_id":2649951,"name":"Erdington","country":"GB","coord":{"lon":-1.81667,"lat":52.533329}},
{"_id":2645486,"name":"Kingsbridge","country":"GB","coord":{"lon":-3.77638,"lat":50.284512}},
{"_id":7303904,"name":"Milton of Edradour","country":"GB","coord":{"lon":-3.70173,"lat":56.701801}},
{"_id":7298868,"name":"Coedffranc","country":"GB","coord":{"lon":-3.86079,"lat":51.637131}},
{"_id":2649955,"name":"Epworth","country":"GB","coord":{"lon":-0.82399,"lat":53.52602}},
{"_id":2650800,"name":"Dumbleton","country":"GB","coord":{"lon":-1.97605,"lat":52.022148}},
{"_id":2650077,"name":"Elmers End","country":"GB","coord":{"lon":-0.04729,"lat":51.398079}},
{"_id":2645463,"name":"Kingskettle","country":"GB","coord":{"lon":-3.11693,"lat":56.26215}},
{"_id":2642932,"name":"Maryculter","country":"GB","coord":{"lon":-2.23738,"lat":57.082859}},
{"_id":7290549,"name":"Cotswold District","country":"GB","coord":{"lon":-1.968,"lat":51.84462}},
{"_id":2650500,"name":"East Barsham","country":"GB","coord":{"lon":0.84792,"lat":52.869091}},
{"_id":2652006,"name":"Cretingham","country":"GB","coord":{"lon":1.25823,"lat":52.19569}},
{"_id":2642855,"name":"Meadowbank","country":"GB","coord":{"lon":-2.51667,"lat":53.716671}},


{"_id":2655838,"name":"Berrow","country":"GB","coord":{"lon":-3.00861,"lat":51.264721}},

{"_id":7294421,"name":"Southsea","country":"GB","coord":{"lon":-1.09262,"lat":50.783039}},
{"_id":2639996,"name":"Portsmouth","country":"GB","coord":{"lon":-1.09125,"lat":50.798988}},

{"_id":7298244,"name":"Kirmington","country":"GB","coord":{"lon":-0.33325,"lat":53.577202}},
{"_id":7284876,"name":"Heathrow","country":"GB","coord":{"lon":-0.4529,"lat":51.4673}},






{"_id":8224784,"name":"Stockton Heath","country":"GB","coord":{"lon":-2.57406,"lat":53.370838}},
{"_id":8224785,"name":"Waterloo","country":"GB","coord":{"lon":-3.03017,"lat":53.474541}},

{"_id":2635167,"name":"United Kingdom of Great Britain and Northern Ireland","country":"GB","coord":{"lon":-2.69531,"lat":54.758438}},
{"_id":6269131,"name":"England","country":"GB","coord":{"lon":-0.70312,"lat":52.16045}},
{"_id":2652355,"name":"Cornwall","country":"GB","coord":{"lon":-4.75,"lat":50.416672}},
{"_id":2638741,"name":"Saint Martins Green","country":"GB","coord":{"lon":-5.16667,"lat":50.066669}},

{"_id":2638831,"name":"Saint Clement","country":"GB","coord":{"lon":-5.01667,"lat":50.25}},

{"_id":2638698,"name":"Saint Stephen","country":"GB","coord":{"lon":-4.9,"lat":50.333328}},

{"_id":2650328,"name":"East Sussex","country":"GB","coord":{"lon":0.33333,"lat":50.916672}},
{"_id":2634637,"name":"Wealden District","country":"GB","coord":{"lon":0.16667,"lat":50.916672}},
{"_id":2642877,"name":"Mayfield","country":"GB","coord":{"lon":0.25844,"lat":51.02013}},

{"_id":2651292,"name":"Devon","country":"GB","coord":{"lon":-3.75,"lat":50.75}},
{"_id":7290677,"name":"North Devon District","country":"GB","coord":{"lon":-3.92728,"lat":51.0611}},
{"_id":2636169,"name":"Tawstock","country":"GB","coord":{"lon":-4.06307,"lat":51.049721}},
{"_id":2634258,"name":"West Sussex","country":"GB","coord":{"lon":-0.41667,"lat":51}},
{"_id":7290651,"name":"Horsham District","country":"GB","coord":{"lon":-0.38298,"lat":51.002071}},
{"_id":2634749,"name":"Warnham","country":"GB","coord":{"lon":-0.3495,"lat":51.089779}},
{"_id":2647554,"name":"Hampshire","country":"GB","coord":{"lon":-1.25,"lat":51}},
{"_id":7290562,"name":"Winchester District","country":"GB","coord":{"lon":-1.24375,"lat":51.025509}},
{"_id":2644235,"name":"Littleton","country":"GB","coord":{"lon":-1.35,"lat":51.083328}},

{"_id":2644248,"name":"Little Somborne","country":"GB","coord":{"lon":-1.4517,"lat":51.09449}},
{"_id":3333158,"name":"Kent","country":"GB","coord":{"lon":0.66667,"lat":51.166672}},
{"_id":2646534,"name":"Hougham","country":"GB","coord":{"lon":1.24729,"lat":51.11301}},

{"_id":7290554,"name":"East Hampshire District","country":"GB","coord":{"lon":-0.93676,"lat":51.039452}},
{"_id":2657091,"name":"Arford","country":"GB","coord":{"lon":-0.81462,"lat":51.124458}},
{"_id":2648995,"name":"Fullerton","country":"GB","coord":{"lon":-1.4617,"lat":51.152431}},
{"_id":7290575,"name":"Tunbridge Wells District","country":"GB","coord":{"lon":0.39999,"lat":51.101959}},
{"_id":2637474,"name":"Southborough","country":"GB","coord":{"lon":0.25972,"lat":51.157791}},
{"_id":2636512,"name":"Surrey","country":"GB","coord":{"lon":-0.33333,"lat":51.25}},
{"_id":7290644,"name":"Waverley District","country":"GB","coord":{"lon":-0.62956,"lat":51.157742}},
{"_id":2649817,"name":"Ewhurst","country":"GB","coord":{"lon":-0.4416,"lat":51.153938}},

{"_id":7290572,"name":"Maidstone District","country":"GB","coord":{"lon":0.52837,"lat":51.275299}},
{"_id":2647240,"name":"Headcorn","country":"GB","coord":{"lon":0.62433,"lat":51.169659}},
{"_id":7290652,"name":"Mid Sussex District","country":"GB","coord":{"lon":-0.10069,"lat":51.004761}},
{"_id":2654221,"name":"Burstow","country":"GB","coord":{"lon":-0.12463,"lat":51.156311}},

{"_id":2633680,"name":"Womenswold","country":"GB","coord":{"lon":1.18704,"lat":51.209358}},
{"_id":7290553,"name":"Basingstoke and Deane District","country":"GB","coord":{"lon":-1.21602,"lat":51.258209}},
{"_id":2650793,"name":"Dummer","country":"GB","coord":{"lon":-1.16571,"lat":51.209061}},

{"_id":2649322,"name":"Fleet","country":"GB","coord":{"lon":-0.83333,"lat":51.283329}},
{"_id":2633993,"name":"Whyteleafe","country":"GB","coord":{"lon":-0.08429,"lat":51.308079}},

{"_id":3333130,"name":"Borough of Bracknell Forest","country":"GB","coord":{"lon":-0.75,"lat":51.416672}},
{"_id":2638580,"name":"Sandhurst","country":"GB","coord":{"lon":-0.78655,"lat":51.346748}},
{"_id":3209928,"name":"Greenhill","country":"GB","coord":{"lon":1.10833,"lat":51.359718}},
{"_id":3333217,"name":"West Berkshire","country":"GB","coord":{"lon":-1.25,"lat":51.416672}},
{"_id":7294187,"name":"Stratfield Mortimer","country":"GB","coord":{"lon":-1.04556,"lat":51.374481}},
{"_id":2636716,"name":"Stratfield Mortimer","country":"GB","coord":{"lon":-1.03495,"lat":51.37339}},
{"_id":2655627,"name":"Birchington-on-Sea","country":"GB","coord":{"lon":1.3048,"lat":51.375751}},
{"_id":3333171,"name":"Merton","country":"GB","coord":{"lon":-0.18919,"lat":51.410801}},

{"_id":2633868,"name":"Wiltshire","country":"GB","coord":{"lon":-1.91667,"lat":51.25}},
{"_id":7300312,"name":"Bromham","country":"GB","coord":{"lon":-2.03738,"lat":51.38879}},
{"_id":2653116,"name":"Chittoe","country":"GB","coord":{"lon":-2.06622,"lat":51.399399}},
{"_id":3333160,"name":"Royal Kingston upon Thames","country":"GB","coord":{"lon":-0.28333,"lat":51.366669}},
{"_id":2643162,"name":"Malden","country":"GB","coord":{"lon":-0.25,"lat":51.400002}},
{"_id":2656751,"name":"Avington","country":"GB","coord":{"lon":-1.46667,"lat":51.400002}},

{"_id":3333163,"name":"Lambeth","country":"GB","coord":{"lon":-0.13333,"lat":51.416672}},
{"_id":2652951,"name":"Clapham","country":"GB","coord":{"lon":-0.13759,"lat":51.462238}},

{"_id":2644919,"name":"Langley Marish","country":"GB","coord":{"lon":-0.55,"lat":51.5}},

{"_id":2642127,"name":"Moulsford","country":"GB","coord":{"lon":-1.15056,"lat":51.552631}},

{"_id":3333153,"name":"Havering","country":"GB","coord":{"lon":0.21667,"lat":51.549999}},
{"_id":2635150,"name":"Upminster","country":"GB","coord":{"lon":0.2556,"lat":51.555939}},

{"_id":2649889,"name":"Essex","country":"GB","coord":{"lon":0.58333,"lat":51.833328}},
{"_id":2639266,"name":"Rochford","country":"GB","coord":{"lon":0.81641,"lat":51.58371}},
{"_id":2639583,"name":"Rayleigh","country":"GB","coord":{"lon":0.60459,"lat":51.585709}},
{"_id":2647116,"name":"Hendon","country":"GB","coord":{"lon":-0.21667,"lat":51.599998}},

{"_id":2647043,"name":"Hertfordshire","country":"GB","coord":{"lon":-0.25,"lat":51.833328}},
{"_id":2635925,"name":"Three Rivers","country":"GB","coord":{"lon":-0.45095,"lat":51.6702}},
{"_id":7303225,"name":"Headwood Bolevad","country":"GB","coord":{"lon":-0.43825,"lat":51.677078}},
{"_id":3333240,"name":"County Borough of Caerphilly","country":"GB","coord":{"lon":-3.16667,"lat":51.666672}},
{"_id":2647108,"name":"Hengoed","country":"GB","coord":{"lon":-3.23167,"lat":51.650829}},

{"_id":3333134,"name":"City of Bristol","country":"GB","coord":{"lon":-2.6,"lat":51.450001}},
{"_id":6690591,"name":"Little Chalfont","country":"GB","coord":{"lon":-0.57038,"lat":51.668289}},
{"_id":7290691,"name":"Brentwood District","country":"GB","coord":{"lon":0.29577,"lat":51.640148}},
{"_id":2655466,"name":"Blackmore","country":"GB","coord":{"lon":0.31865,"lat":51.692558}},

{"_id":2640726,"name":"Oxfordshire","country":"GB","coord":{"lon":-1.25,"lat":51.833328}},
{"_id":2635027,"name":"Vale of White Horse District","country":"GB","coord":{"lon":-1.41667,"lat":51.666672}},
{"_id":2643611,"name":"Longworth","country":"GB","coord":{"lon":-1.43754,"lat":51.691391}},

{"_id":7290535,"name":"Central Bedfordshire","country":"GB","coord":{"lon":-0.42148,"lat":51.997551}},
{"_id":7296194,"name":"Houghton Regis","country":"GB","coord":{"lon":-0.53135,"lat":51.906811}},
{"_id":2646523,"name":"Houghton Regis","country":"GB","coord":{"lon":-0.52125,"lat":51.904411}},

{"_id":7290567,"name":"North Hertfordshire District","country":"GB","coord":{"lon":-0.1644,"lat":51.956421}},
{"_id":2654134,"name":"Bygrave","country":"GB","coord":{"lon":-0.16604,"lat":52.004349}},

{"_id":7294323,"name":"Campton and Chicksands","country":"GB","coord":{"lon":-0.37078,"lat":52.037579}},
{"_id":2653185,"name":"Chicksands","country":"GB","coord":{"lon":-0.3639,"lat":52.045849}},
{"_id":2636561,"name":"Suffolk","country":"GB","coord":{"lon":1,"lat":52.166672}},
{"_id":6301933,"name":"Ravenswood","country":"GB","coord":{"lon":1.20918,"lat":52.02916}},

{"_id":7290636,"name":"St. Edmundsbury District","country":"GB","coord":{"lon":0.67634,"lat":52.226849}},
{"_id":2652941,"name":"Clare","country":"GB","coord":{"lon":0.58167,"lat":52.078609}},
{"_id":7290637,"name":"Suffolk Coastal District","country":"GB","coord":{"lon":1.41469,"lat":52.150009}},
{"_id":6301921,"name":"Kesgrave","country":"GB","coord":{"lon":1.2365,"lat":52.062408}},
{"_id":2634008,"name":"Whitton","country":"GB","coord":{"lon":1.13333,"lat":52.083328}},
{"_id":3333173,"name":"Borough of Milton Keynes","country":"GB","coord":{"lon":-0.75,"lat":52.083328}},
{"_id":7301827,"name":"Newport Pagnell","country":"GB","coord":{"lon":-0.72814,"lat":52.087502}},
{"_id":2641591,"name":"Newport Pagnell","country":"GB","coord":{"lon":-0.72218,"lat":52.087311}},
{"_id":2633560,"name":"Worcestershire","country":"GB","coord":{"lon":-2.16667,"lat":52.166672}},
{"_id":2643140,"name":"Malvern Link","country":"GB","coord":{"lon":-2.31402,"lat":52.128181}},

{"_id":2653940,"name":"Cambridgeshire","country":"GB","coord":{"lon":0.08333,"lat":52.333328}},
{"_id":7290661,"name":"South Cambridgeshire District","country":"GB","coord":{"lon":0.09467,"lat":52.179211}},
{"_id":2647362,"name":"Haslingfield","country":"GB","coord":{"lon":0.05579,"lat":52.150162}},

{"_id":7290635,"name":"Mid Suffolk District","country":"GB","coord":{"lon":1.1053,"lat":52.234322}},
{"_id":2636749,"name":"Stowmarket","country":"GB","coord":{"lon":0.99774,"lat":52.188931}},

{"_id":2641429,"name":"Northamptonshire","country":"GB","coord":{"lon":-0.83333,"lat":52.25}},
{"_id":7290604,"name":"South Northamptonshire District","country":"GB","coord":{"lon":-1.01717,"lat":52.117939}},
{"_id":2652556,"name":"Collingtree","country":"GB","coord":{"lon":-0.9032,"lat":52.192982}},
{"_id":2653462,"name":"Caxton","country":"GB","coord":{"lon":-0.09255,"lat":52.20575}},
{"_id":2647492,"name":"Hardwick","country":"GB","coord":{"lon":0.00815,"lat":52.20882}},
{"_id":2643231,"name":"Madingley","country":"GB","coord":{"lon":0.0427,"lat":52.227901}},

{"_id":2650041,"name":"Eltisley","country":"GB","coord":{"lon":-0.14269,"lat":52.22094}},

{"_id":2648621,"name":"Gislingham","country":"GB","coord":{"lon":1.04198,"lat":52.3036}},

{"_id":2642543,"name":"Mildenhall","country":"GB","coord":{"lon":0.51086,"lat":52.34446}},

{"_id":2633437,"name":"Wyre Forest District","country":"GB","coord":{"lon":-2.36667,"lat":52.349998}},
{"_id":2653413,"name":"Chaddesley Corbett","country":"GB","coord":{"lon":-2.15928,"lat":52.361069}},
{"_id":2646390,"name":"Huntingdonshire","country":"GB","coord":{"lon":-0.25,"lat":52.416672}},
{"_id":2657565,"name":"Alconbury","country":"GB","coord":{"lon":-0.26009,"lat":52.368999}},

{"_id":7290638,"name":"Waveney District","country":"GB","coord":{"lon":1.55933,"lat":52.430351}},
{"_id":2638968,"name":"Rumburgh","country":"GB","coord":{"lon":1.4459,"lat":52.379742}},

{"_id":2641455,"name":"Norfolk","country":"GB","coord":{"lon":1,"lat":52.666672}},
{"_id":7290599,"name":"South Norfolk District","country":"GB","coord":{"lon":1.31663,"lat":52.51651}},
{"_id":2647490,"name":"Hardwick","country":"GB","coord":{"lon":1.26746,"lat":52.46032}},
{"_id":2642120,"name":"Moulton Saint Michael","country":"GB","coord":{"lon":1.18333,"lat":52.466671}},
{"_id":2638655,"name":"Shropshire","country":"GB","coord":{"lon":-2.75,"lat":52.666672}},
{"_id":2647549,"name":"Hampton","country":"GB","coord":{"lon":-2.38333,"lat":52.466671}},

{"_id":2649568,"name":"Feltwell","country":"GB","coord":{"lon":0.51945,"lat":52.485809}},

{"_id":7292260,"name":"Claverley","country":"GB","coord":{"lon":-2.30606,"lat":52.531841}},
{"_id":2652918,"name":"Claverley","country":"GB","coord":{"lon":-2.30646,"lat":52.537899}},
{"_id":2649556,"name":"Fenland District","country":"GB","coord":{"lon":0.08333,"lat":52.533329}},
{"_id":2633864,"name":"Wimblington","country":"GB","coord":{"lon":0.08416,"lat":52.509251}},

{"_id":2634010,"name":"Whittlesey","country":"GB","coord":{"lon":-0.13016,"lat":52.558041}},

{"_id":2634908,"name":"Wakerley","country":"GB","coord":{"lon":-0.5918,"lat":52.58453}},
{"_id":2653530,"name":"Castor","country":"GB","coord":{"lon":-0.34603,"lat":52.573189}},

{"_id":2644486,"name":"Lincolnshire","country":"GB","coord":{"lon":-0.25,"lat":53.166672}},
{"_id":7290591,"name":"South Holland District","country":"GB","coord":{"lon":-0.01524,"lat":52.811588}},
{"_id":2635283,"name":"Tydd Saint Mary","country":"GB","coord":{"lon":0.13664,"lat":52.74585}},

{"_id":2647242,"name":"Heacham","country":"GB","coord":{"lon":0.49387,"lat":52.907822}},
{"_id":2641169,"name":"Nottinghamshire","country":"GB","coord":{"lon":-1,"lat":53.166672}},
{"_id":7290619,"name":"Rushcliffe District","country":"GB","coord":{"lon":-1.04368,"lat":52.912319}},
{"_id":2634493,"name":"West Bridgford","country":"GB","coord":{"lon":-1.12537,"lat":52.92979}},

{"_id":2641324,"name":"North Kesteven","country":"GB","coord":{"lon":-0.63333,"lat":53.116669}},
{"_id":2646494,"name":"Howell","country":"GB","coord":{"lon":-0.30882,"lat":53.001869}},

{"_id":7290588,"name":"Boston District","country":"GB","coord":{"lon":-0.00233,"lat":52.974388}},
{"_id":2633501,"name":"Wrangle","country":"GB","coord":{"lon":0.12989,"lat":53.039349}},
{"_id":7290589,"name":"East Lindsey District","country":"GB","coord":{"lon":0.02194,"lat":53.267681}},
{"_id":2654326,"name":"Bunkers Hill","country":"GB","coord":{"lon":-0.1,"lat":53.066669}},

{"_id":2656971,"name":"Ashby de la Launde","country":"GB","coord":{"lon":-0.42803,"lat":53.08223}},
{"_id":7290536,"name":"Cheshire East","country":"GB","coord":{"lon":-2.36245,"lat":53.167019}},
{"_id":7294577,"name":"Wistaston","country":"GB","coord":{"lon":-2.47956,"lat":53.085819}},
{"_id":2633758,"name":"Wistaston","country":"GB","coord":{"lon":-2.47741,"lat":53.08078}},
{"_id":2635806,"name":"Timberland","country":"GB","coord":{"lon":-0.32912,"lat":53.11203}},

{"_id":2640592,"name":"Partney","country":"GB","coord":{"lon":0.10986,"lat":53.193802}},

{"_id":2651346,"name":"Derbyshire","country":"GB","coord":{"lon":-1.58333,"lat":53.166672}},
{"_id":7290672,"name":"High Peak District","country":"GB","coord":{"lon":-1.84251,"lat":53.367298}},
{"_id":2654141,"name":"Buxton","country":"GB","coord":{"lon":-1.90982,"lat":53.257408}},
{"_id":2650113,"name":"Elkesley","country":"GB","coord":{"lon":-0.97076,"lat":53.27282}},
{"_id":2634860,"name":"Walmsgate","country":"GB","coord":{"lon":0.04705,"lat":53.283531}},

{"_id":3333220,"name":"Borough of Wirral","country":"GB","coord":{"lon":-3.08333,"lat":53.333328}},
{"_id":2646968,"name":"Higher Bebington","country":"GB","coord":{"lon":-3.02418,"lat":53.35397}},
{"_id":2634375,"name":"West Kirby","country":"GB","coord":{"lon":-3.18417,"lat":53.37302}},
{"_id":2642204,"name":"Moreton","country":"GB","coord":{"lon":-3.11667,"lat":53.400002}},

{"_id":3333169,"name":"City and Borough of Manchester","country":"GB","coord":{"lon":-2.25,"lat":53.416672}},
{"_id":6620310,"name":"Didsbury","country":"GB","coord":{"lon":-2.23145,"lat":53.416981}},
{"_id":6691248,"name":"Chorlton cum Hardy","country":"GB","coord":{"lon":-2.2631,"lat":53.435051}},
{"_id":2648405,"name":"Glossop","country":"GB","coord":{"lon":-1.949,"lat":53.443249}},

{"_id":3333143,"name":"Borough of Doncaster","country":"GB","coord":{"lon":-1.08333,"lat":53.5}},
{"_id":7293382,"name":"Loversall","country":"GB","coord":{"lon":-1.11744,"lat":53.486431}},
{"_id":2643549,"name":"Loversall","country":"GB","coord":{"lon":-1.13649,"lat":53.481499}},
{"_id":7290593,"name":"West Lindsey District","country":"GB","coord":{"lon":-0.47458,"lat":53.397301}},
{"_id":2636451,"name":"Swallow","country":"GB","coord":{"lon":-0.22705,"lat":53.510792}},

{"_id":2644305,"name":"Little Hulton","country":"GB","coord":{"lon":-2.41667,"lat":53.533329}},
{"_id":3333175,"name":"North East Lincolnshire","country":"GB","coord":{"lon":-0.08333,"lat":53.533329}},
{"_id":7298226,"name":"Bradley","country":"GB","coord":{"lon":-0.12301,"lat":53.533588}},
{"_id":2654984,"name":"Bradley","country":"GB","coord":{"lon":-0.13333,"lat":53.549999}},
{"_id":7298234,"name":"Great Coates","country":"GB","coord":{"lon":-0.11261,"lat":53.581181}},
{"_id":2648133,"name":"Great Coates","country":"GB","coord":{"lon":-0.13905,"lat":53.570702}},
{"_id":2647878,"name":"Grimsby","country":"GB","coord":{"lon":-0.07553,"lat":53.565392}},

{"_id":7291985,"name":"South Elmsall","country":"GB","coord":{"lon":-1.28071,"lat":53.59124}},
{"_id":2637435,"name":"South Elmsall","country":"GB","coord":{"lon":-1.28034,"lat":53.597092}},

{"_id":2655459,"name":"Blackpool","country":"GB","coord":{"lon":-3.05,"lat":53.816669}},

{"_id":2641209,"name":"North Yorkshire","country":"GB","coord":{"lon":-1.5,"lat":54.166672}},
{"_id":7290607,"name":"Hambleton District","country":"GB","coord":{"lon":-1.33708,"lat":54.250259}},
{"_id":2657446,"name":"Alne","country":"GB","coord":{"lon":-1.24014,"lat":54.083752}},

{"_id":2650517,"name":"Easingwold","country":"GB","coord":{"lon":-1.19225,"lat":54.119099}},

{"_id":2638198,"name":"Sessay","country":"GB","coord":{"lon":-1.30282,"lat":54.172009}},

{"_id":7290611,"name":"Scarborough District","country":"GB","coord":{"lon":-0.63685,"lat":54.347111}},
{"_id":2653541,"name":"Castleton","country":"GB","coord":{"lon":-0.93333,"lat":54.450001}},

{"_id":2651712,"name":"Cumbria","country":"GB","coord":{"lon":-2.83333,"lat":54.583328}},
{"_id":7290662,"name":"Allerdale District","country":"GB","coord":{"lon":-3.28017,"lat":54.708801}},
{"_id":2652676,"name":"Cockermouth","country":"GB","coord":{"lon":-3.36086,"lat":54.66209}},

{"_id":2641235,"name":"Northumberland","country":"GB","coord":{"lon":-2,"lat":55.25}},

{"_id":2638360,"name":"Scotland","country":"GB","coord":{"lon":-4,"lat":56}},
{"_id":2642240,"name":"Moray","country":"GB","coord":{"lon":-3.25,"lat":57.416672}},
{"_id":2654739,"name":"Bridge of Lossie","country":"GB","coord":{"lon":-3.46667,"lat":57.549999}},

{"_id":2634428,"name":"Eilean Siar","country":"GB","coord":{"lon":-7.16667,"lat":57.666672}},
{"_id":2637764,"name":"Skigersta","country":"GB","coord":{"lon":-6.21135,"lat":58.473412}},




{"_id":2657311,"name":"Anglesey","country":"GB","coord":{"lon":-4.33333,"lat":53.25}},

{"_id":2643812,"name":"Lochmaben","country":"GB","coord":{"lon":-3.44286,"lat":55.130112}},

{"_id":3333164,"name":"City and Borough of Leeds","country":"GB","coord":{"lon":-1.5477,"lat":53.79644}},

{"_id":7290685,"name":"Weymouth and Portland District","country":"GB","coord":{"lon":-2.45344,"lat":50.595211}},

{"_id":7295037,"name":"Clevedon","country":"GB","coord":{"lon":-2.85311,"lat":51.434219}},

{"_id":2636381,"name":"Swingfield","country":"GB","coord":{"lon":1.18944,"lat":51.146511}},

{"_id":2655241,"name":"Bolsover District","country":"GB","coord":{"lon":-1.27237,"lat":53.196941}},

{"_id":7292026,"name":"Tremaine","country":"GB","coord":{"lon":-4.50528,"lat":50.684681}},

{"_id":2634729,"name":"Wartling","country":"GB","coord":{"lon":0.35431,"lat":50.858791}},

{"_id":7290678,"name":"Teignbridge District","country":"GB","coord":{"lon":-3.65167,"lat":50.612}},
{"_id":7290653,"name":"Worthing District","country":"GB","coord":{"lon":-0.38686,"lat":50.831909}},

{"_id":2651048,"name":"Dover","country":"GB","coord":{"lon":1.3,"lat":51.133331}},
{"_id":7290642,"name":"Spelthorne District","country":"GB","coord":{"lon":-0.46044,"lat":51.424469}},

{"_id":2647716,"name":"Gwynedd","country":"GB","coord":{"lon":-3.91667,"lat":52.833328}},
{"_id":6547224,"name":"Moor Park","country":"GB","coord":{"lon":-0.43412,"lat":51.629501}},
{"_id":2652843,"name":"Clifton","country":"GB","coord":{"lon":-2.62,"lat":51.461109}},
{"_id":2637349,"name":"South Oxfordshire District","country":"GB","coord":{"lon":-1.06667,"lat":51.666672}},

{"_id":7290654,"name":"Bromsgrove District","country":"GB","coord":{"lon":-2.00521,"lat":52.361279}},
{"_id":7290660,"name":"Cambridge District","country":"GB","coord":{"lon":0.12823,"lat":52.19714}},

{"_id":2641431,"name":"Northampton","country":"GB","coord":{"lon":-0.8812,"lat":52.23439}},

{"_id":2638717,"name":"Saint Neots","country":"GB","coord":{"lon":-0.26667,"lat":52.216671}},

{"_id":7290597,"name":"North Norfolk District","country":"GB","coord":{"lon":1.1936,"lat":52.83577}},
{"_id":7297121,"name":"Whixall","country":"GB","coord":{"lon":-2.7409,"lat":52.906898}},
{"_id":7290596,"name":"King's Lynn and West Norfolk District","country":"GB","coord":{"lon":0.48929,"lat":52.712582}},

{"_id":2648735,"name":"Gedney Hill","country":"GB","coord":{"lon":-0.02008,"lat":52.684341}},

{"_id":7295552,"name":"Ringway","country":"GB","coord":{"lon":-2.28619,"lat":53.35796}},

{"_id":7290608,"name":"Harrogate District","country":"GB","coord":{"lon":-1.58821,"lat":54.076321}},

{"_id":7290664,"name":"Carlisle District","country":"GB","coord":{"lon":-2.83114,"lat":54.982498}},

{"_id":2657306,"name":"Angus","country":"GB","coord":{"lon":-2.91667,"lat":56.666672}},

{"_id":2649966,"name":"Eoropie","country":"GB","coord":{"lon":-6.26667,"lat":58.5}},

{"_id":3333189,"name":"Borough of Rotherham","country":"GB","coord":{"lon":-1.25,"lat":53.416672}},

{"_id":2637010,"name":"Starbeck","country":"GB","coord":{"lon":-1.49899,"lat":53.999439}},

{"_id":7290674,"name":"East Devon District","country":"GB","coord":{"lon":-3.23487,"lat":50.756321}},
{"_id":2637853,"name":"Sidmouth","country":"GB","coord":{"lon":-3.2397,"lat":50.690941}},

{"_id":2648402,"name":"Gloucestershire","country":"GB","coord":{"lon":-2.16667,"lat":51.833328}},
{"_id":7290548,"name":"Cheltenham District","country":"GB","coord":{"lon":-2.07522,"lat":51.898129}},
{"_id":2636388,"name":"Swindon","country":"GB","coord":{"lon":-2.09581,"lat":51.922619}},

{"_id":3333221,"name":"District of Wokingham","country":"GB","coord":{"lon":-0.91667,"lat":51.416672}},
{"_id":7297501,"name":"Shinfield","country":"GB","coord":{"lon":-0.96136,"lat":51.404919}},
{"_id":2637968,"name":"Shinfield","country":"GB","coord":{"lon":-0.94534,"lat":51.405418}},
{"_id":7290570,"name":"Ashford District","country":"GB","coord":{"lon":0.81147,"lat":51.129299}},
{"_id":2645452,"name":"Kingsnorth","country":"GB","coord":{"lon":0.85848,"lat":51.11861}},
{"_id":2644974,"name":"Lancashire","country":"GB","coord":{"lon":-2.5,"lat":53.833328}},
{"_id":2637338,"name":"South Ribble","country":"GB","coord":{"lon":-2.73333,"lat":53.716671}},
{"_id":2640391,"name":"Penwortham","country":"GB","coord":{"lon":-2.72912,"lat":53.749821}},

{"_id":2635511,"name":"Tremaine","country":"GB","coord":{"lon":-4.49704,"lat":50.672218}},

{"_id":2637532,"name":"Somerset","country":"GB","coord":{"lon":-3,"lat":51.083328}},
{"_id":7290625,"name":"South Somerset District","country":"GB","coord":{"lon":-2.70785,"lat":50.983749}},
{"_id":2633373,"name":"Yeovil","country":"GB","coord":{"lon":-2.63211,"lat":50.941589}},
{"_id":2645217,"name":"Kirkton of Airlie","country":"GB","coord":{"lon":-3.11667,"lat":56.633331}},

{"_id":2651920,"name":"Crondall","country":"GB","coord":{"lon":-0.86329,"lat":51.232849}},

{"_id":3333162,"name":"Borough of Knowsley","country":"GB","coord":{"lon":-2.83333,"lat":53.416672}},
{"_id":7295927,"name":"Whiston","country":"GB","coord":{"lon":-2.79727,"lat":53.412819}},
{"_id":6694788,"name":"Whiston","country":"GB","coord":{"lon":-2.78907,"lat":53.419971}},
{"_id":2637141,"name":"Staffordshire","country":"GB","coord":{"lon":-2,"lat":52.833328}},
{"_id":7290631,"name":"Stafford District","country":"GB","coord":{"lon":-2.17342,"lat":52.847481}},
{"_id":2646937,"name":"High Offley","country":"GB","coord":{"lon":-2.32248,"lat":52.832779}},

{"_id":2657830,"name":"Aberdeenshire","country":"GB","coord":{"lon":-2.66667,"lat":57.166672}},
{"_id":2642692,"name":"Methlick","country":"GB","coord":{"lon":-2.24002,"lat":57.425869}},

{"_id":2639259,"name":"Rockbeare","country":"GB","coord":{"lon":-3.39039,"lat":50.74575}},

{"_id":2650345,"name":"East Riding of Yorkshire","country":"GB","coord":{"lon":-0.5,"lat":53.916672}},
{"_id":7300469,"name":"Bridlington","country":"GB","coord":{"lon":-0.19542,"lat":54.094711}},
{"_id":2654728,"name":"Bridlington","country":"GB","coord":{"lon":-0.19192,"lat":54.083061}},

{"_id":2637890,"name":"Shrewton","country":"GB","coord":{"lon":-1.90264,"lat":51.19194}},

{"_id":3333174,"name":"City and Borough of Newcastle upon Tyne","country":"GB","coord":{"lon":-1.66667,"lat":55}},
{"_id":7296101,"name":"Woolsington","country":"GB","coord":{"lon":-1.70663,"lat":55.02121}},
{"_id":2644627,"name":"Lemington","country":"GB","coord":{"lon":-1.70937,"lat":54.978359}},

{"_id":2649963,"name":"Epping","country":"GB","coord":{"lon":0.11055,"lat":51.698151}},

{"_id":2655192,"name":"The Scottish Borders","country":"GB","coord":{"lon":-2.83333,"lat":55.583328}},
{"_id":2640526,"name":"Peebles","country":"GB","coord":{"lon":-3.1888,"lat":55.651901}},

{"_id":3333123,"name":"Bath and North East Somerset","country":"GB","coord":{"lon":-2.5,"lat":51.333328}},
{"_id":7296170,"name":"Paulton","country":"GB","coord":{"lon":-2.48606,"lat":51.304169}},
{"_id":2640559,"name":"Paulton","country":"GB","coord":{"lon":-2.50028,"lat":51.304722}},
{"_id":7290547,"name":"Uttlesford District","country":"GB","coord":{"lon":0.29535,"lat":51.92952}},
{"_id":2638878,"name":"Saffron Walden","country":"GB","coord":{"lon":0.24234,"lat":52.023369}},

{"_id":2655636,"name":"Binsted","country":"GB","coord":{"lon":-0.89899,"lat":51.164268}},

{"_id":6693663,"name":"Writhlington","country":"GB","coord":{"lon":-2.42806,"lat":51.29134}},
{"_id":2633840,"name":"Royal Borough of Windsor and Maidenhead","country":"GB","coord":{"lon":-0.66667,"lat":51.466671}},
{"_id":2643186,"name":"Maidenhead","country":"GB","coord":{"lon":-0.71986,"lat":51.522789}},

{"_id":7301522,"name":"Midgham","country":"GB","coord":{"lon":-1.20141,"lat":51.401852}},
{"_id":2642569,"name":"Midgham","country":"GB","coord":{"lon":-1.20279,"lat":51.401508}},
{"_id":2651930,"name":"Cromer","country":"GB","coord":{"lon":1.29892,"lat":52.931229}},
{"_id":2651385,"name":"Denbighshire","country":"GB","coord":{"lon":-3.33333,"lat":53.083328}},
{"_id":7297140,"name":"Llangynhafal","country":"GB","coord":{"lon":-3.29447,"lat":53.159561}},
{"_id":2644004,"name":"Llangynhafal","country":"GB","coord":{"lon":-3.30394,"lat":53.16201}},
{"_id":2643539,"name":"Lower Bebington","country":"GB","coord":{"lon":-3.00408,"lat":53.351059}},

{"_id":2638027,"name":"Sherburn in Elmet","country":"GB","coord":{"lon":-1.2466,"lat":53.795189}},

{"_id":3333219,"name":"Borough of Wigan","country":"GB","coord":{"lon":-2.58333,"lat":53.5}},
{"_id":2655726,"name":"Bickershaw","country":"GB","coord":{"lon":-2.56937,"lat":53.51358}},

{"_id":3333151,"name":"Harrow","country":"GB","coord":{"lon":-0.33333,"lat":51.566669}},
{"_id":2647420,"name":"Harrow Weald","country":"GB","coord":{"lon":-0.3374,"lat":51.610661}},
{"_id":7290578,"name":"Fylde District","country":"GB","coord":{"lon":-2.92633,"lat":53.793079}},
{"_id":2642943,"name":"Marton","country":"GB","coord":{"lon":-3,"lat":53.783329}},

{"_id":2651579,"name":"Dallington","country":"GB","coord":{"lon":-0.91667,"lat":52.23333}},

{"_id":2646007,"name":"Isle of Wight","country":"GB","coord":{"lon":-1.33333,"lat":50.666672}},
{"_id":7291790,"name":"Newchurch","country":"GB","coord":{"lon":-1.19872,"lat":50.657581}},
{"_id":2641669,"name":"Newchurch","country":"GB","coord":{"lon":-1.2085,"lat":50.664421}},

{"_id":2637139,"name":"Staffordshire Moorlands","country":"GB","coord":{"lon":-2,"lat":53.049999}},
{"_id":2653279,"name":"Cheddleton","country":"GB","coord":{"lon":-2.04228,"lat":53.069099}},

{"_id":3333204,"name":"City of Stoke-on-Trent","country":"GB","coord":{"lon":-2.16667,"lat":53}},
{"_id":2649872,"name":"Etruria","country":"GB","coord":{"lon":-2.19445,"lat":53.022732}},
{"_id":2647525,"name":"Hanley","country":"GB","coord":{"lon":-2.17395,"lat":53.024921}},

{"_id":3333197,"name":"Borough of Southend-on-Sea","country":"GB","coord":{"lon":0.7,"lat":51.533329}},
{"_id":7116547,"name":"Chalkwell","country":"GB","coord":{"lon":0.6724,"lat":51.543671}},

{"_id":2643088,"name":"Manuden","country":"GB","coord":{"lon":0.1672,"lat":51.918911}},

{"_id":2648729,"name":"Gelligaer","country":"GB","coord":{"lon":-3.25452,"lat":51.656261}},
{"_id":2633332,"name":"Ystrad Mynach","country":"GB","coord":{"lon":-3.2362,"lat":51.642761}},



{"_id":7294506,"name":"Fownhope","country":"GB","coord":{"lon":-2.60969,"lat":52.014141}},
{"_id":2649121,"name":"Fownhope","country":"GB","coord":{"lon":-2.61515,"lat":52.008331}},

{"_id":2644726,"name":"Leatherhead","country":"GB","coord":{"lon":-0.3259,"lat":51.295929}},

{"_id":2649651,"name":"Farnworth","country":"GB","coord":{"lon":-2.71667,"lat":53.383331}},

{"_id":2636928,"name":"Steyning","country":"GB","coord":{"lon":-0.32787,"lat":50.88744}},

{"_id":2633344,"name":"Yoxford","country":"GB","coord":{"lon":1.50681,"lat":52.268188}},

{"_id":2654408,"name":"Buckinghamshire","country":"GB","coord":{"lon":-0.75,"lat":51.75}},
{"_id":2656718,"name":"Aylesbury Vale","country":"GB","coord":{"lon":-0.8,"lat":51.833328}},
{"_id":2636850,"name":"Stoke Hammond","country":"GB","coord":{"lon":-0.719,"lat":51.956749}},
{"_id":2651589,"name":"Daliburgh","country":"GB","coord":{"lon":-7.4,"lat":57.166672}},

{"_id":7290628,"name":"Lichfield District","country":"GB","coord":{"lon":-1.7733,"lat":52.695999}},
{"_id":2633943,"name":"Wigginton","country":"GB","coord":{"lon":-1.6925,"lat":52.65728}},
{"_id":2641255,"name":"North Stoke","country":"GB","coord":{"lon":-1.12232,"lat":51.571838}},

{"_id":2641364,"name":"Northern Ireland","country":"GB","coord":{"lon":-6.5,"lat":54.5}},

{"_id":3333186,"name":"Borough of Redcar and Cleveland","country":"GB","coord":{"lon":-1,"lat":54.549999}},
{"_id":7292205,"name":"Saltburn, Marske and New Marske","country":"GB","coord":{"lon":-1.00184,"lat":54.585281}},
{"_id":2642974,"name":"Marske-by-the-Sea","country":"GB","coord":{"lon":-1.01959,"lat":54.591469}},

{"_id":2650428,"name":"Easthampstead","country":"GB","coord":{"lon":-0.76355,"lat":51.4007}},

{"_id":2653346,"name":"Chard","country":"GB","coord":{"lon":-2.96597,"lat":50.8727}},

{"_id":7298976,"name":"Porthmadog","country":"GB","coord":{"lon":-4.14548,"lat":52.917969}},
{"_id":2640045,"name":"Porthmadog","country":"GB","coord":{"lon":-4.13137,"lat":52.929241}},

{"_id":7290541,"name":"Chelmsford District","country":"GB","coord":{"lon":0.49226,"lat":51.736561}},
{"_id":2648918,"name":"Galleywood","country":"GB","coord":{"lon":0.47076,"lat":51.700069}},

{"_id":2639388,"name":"Richmond","country":"GB","coord":{"lon":-1.73333,"lat":54.400002}},

{"_id":2633808,"name":"Winslow","country":"GB","coord":{"lon":-0.88131,"lat":51.942841}},

{"_id":2653814,"name":"County of Ceredigion","country":"GB","coord":{"lon":-4,"lat":52.25}},
{"_id":7292323,"name":"Ceulanamaesmawr","country":"GB","coord":{"lon":-3.91701,"lat":52.47831}},
{"_id":2650124,"name":"Elerch","country":"GB","coord":{"lon":-3.93922,"lat":52.460079}},

{"_id":2643071,"name":"March","country":"GB","coord":{"lon":0.08828,"lat":52.551311}},

{"_id":2653290,"name":"Cheadle Hulme","country":"GB","coord":{"lon":-2.1897,"lat":53.376099}},
{"_id":2644667,"name":"Leicestershire","country":"GB","coord":{"lon":-1,"lat":52.666672}},
{"_id":7290584,"name":"Charnwood District","country":"GB","coord":{"lon":-1.13962,"lat":52.738918}},
{"_id":2633998,"name":"Whitwick","country":"GB","coord":{"lon":-1.35536,"lat":52.739971}},

{"_id":2653715,"name":"Carnforth","country":"GB","coord":{"lon":-2.76667,"lat":54.116669}},

{"_id":2657859,"name":"Abbotts Ann","country":"GB","coord":{"lon":-1.53126,"lat":51.189861}},

{"_id":3333203,"name":"Borough of Stockton-on-Tees","country":"GB","coord":{"lon":-1.33333,"lat":54.549999}},
{"_id":7299561,"name":"Billingham","country":"GB","coord":{"lon":-1.23676,"lat":54.601879}},
{"_id":2655664,"name":"Billingham","country":"GB","coord":{"lon":-1.29214,"lat":54.60828}},
{"_id":2648149,"name":"Great Bridgeford","country":"GB","coord":{"lon":-2.17321,"lat":52.840561}},

{"_id":2656248,"name":"Barrow","country":"GB","coord":{"lon":0.58365,"lat":52.24131}},

{"_id":7295968,"name":"Horsforth","country":"GB","coord":{"lon":-1.64435,"lat":53.842331}},
{"_id":2645228,"name":"Kirkstall","country":"GB","coord":{"lon":-1.60215,"lat":53.815811}},

{"_id":2634130,"name":"Whitchurch","country":"GB","coord":{"lon":-1.33904,"lat":51.22995}},

{"_id":3333181,"name":"City of Plymouth","country":"GB","coord":{"lon":-4.13333,"lat":50.383331}},
{"_id":2643128,"name":"Manadon","country":"GB","coord":{"lon":-4.14462,"lat":50.40414}},

{"_id":2651079,"name":"Dorset","country":"GB","coord":{"lon":-2.33333,"lat":50.75}},
{"_id":2654634,"name":"Broadstone","country":"GB","coord":{"lon":-1.98333,"lat":50.75}},

{"_id":7294494,"name":"Bosbury","country":"GB","coord":{"lon":-2.45122,"lat":52.08942}},
{"_id":2655149,"name":"Bosbury","country":"GB","coord":{"lon":-2.44364,"lat":52.088379}},
{"_id":3333205,"name":"City and Borough of Sunderland","country":"GB","coord":{"lon":-1.41667,"lat":54.883331}},
{"_id":2636531,"name":"Sunderland","country":"GB","coord":{"lon":-1.38222,"lat":54.904652}},

{"_id":3333196,"name":"City of Southampton","country":"GB","coord":{"lon":-1.38333,"lat":50.916672}},
{"_id":2637487,"name":"Southampton","country":"GB","coord":{"lon":-1.40428,"lat":50.90395}},

{"_id":2637087,"name":"Stanford-le-Hope","country":"GB","coord":{"lon":0.43422,"lat":51.522739}},

{"_id":7290542,"name":"Colchester District","country":"GB","coord":{"lon":0.86483,"lat":51.870941}},
{"_id":2642541,"name":"Mile End","country":"GB","coord":{"lon":0.9,"lat":51.916672}},

{"_id":2646531,"name":"Hough Green","country":"GB","coord":{"lon":-2.9,"lat":53.183331}},

{"_id":7290693,"name":"Arun District","country":"GB","coord":{"lon":-0.56264,"lat":50.830391}},
{"_id":2655831,"name":"Bersted","country":"GB","coord":{"lon":-0.68888,"lat":50.7966}},

{"_id":7290682,"name":"North Dorset District","country":"GB","coord":{"lon":-2.25879,"lat":50.919319}},
{"_id":2637111,"name":"Stalbridge","country":"GB","coord":{"lon":-2.37548,"lat":50.958069}},

{"_id":2644672,"name":"Legerwood","country":"GB","coord":{"lon":-2.65995,"lat":55.681412}},

{"_id":3333234,"name":"Perth and Kinross","country":"GB","coord":{"lon":-3.75,"lat":56.5}},
{"_id":2648511,"name":"Glencarse","country":"GB","coord":{"lon":-3.30319,"lat":56.379471}},

{"_id":2636566,"name":"Sudbrooke","country":"GB","coord":{"lon":-0.45,"lat":53.26667}},

{"_id":2647954,"name":"Greenlaw","country":"GB","coord":{"lon":-2.46241,"lat":55.706799}},
{"_id":3333177,"name":"North Somerset","country":"GB","coord":{"lon":-2.83333,"lat":51.333328}},
{"_id":7291921,"name":"Dundry","country":"GB","coord":{"lon":-2.62477,"lat":51.40036}},
{"_id":2650737,"name":"Dundry","country":"GB","coord":{"lon":-2.6375,"lat":51.40028}},

{"_id":2634617,"name":"Wednesbury","country":"GB","coord":{"lon":-2.02355,"lat":52.551399}},
{"_id":3333144,"name":"Borough of Dudley","country":"GB","coord":{"lon":-2.11667,"lat":52.5}},

{"_id":2651324,"name":"Dersingham","country":"GB","coord":{"lon":0.50339,"lat":52.84549}},

{"_id":7290583,"name":"Rossendale District","country":"GB","coord":{"lon":-2.27663,"lat":53.68454}},
{"_id":2649765,"name":"Facit","country":"GB","coord":{"lon":-2.17053,"lat":53.666191}},

{"_id":7297069,"name":"Gildingwells","country":"GB","coord":{"lon":-1.16145,"lat":53.36282}},
{"_id":2648672,"name":"Gildingwells","country":"GB","coord":{"lon":-1.16333,"lat":53.362579}},

{"_id":2647261,"name":"Hayes","country":"GB","coord":{"lon":-0.4234,"lat":51.515789}},

{"_id":2646944,"name":"Highland","country":"GB","coord":{"lon":-5,"lat":57.5}},
{"_id":2650257,"name":"Edderton","country":"GB","coord":{"lon":-4.17616,"lat":57.833149}},
{"_id":7294190,"name":"Thatcham","country":"GB","coord":{"lon":-1.25252,"lat":51.394772}},
{"_id":2636049,"name":"Thatcham","country":"GB","coord":{"lon":-1.26049,"lat":51.40366}},

{"_id":7290546,"name":"Tendring District","country":"GB","coord":{"lon":1.11561,"lat":51.86311}},
{"_id":2651047,"name":"Dovercourt","country":"GB","coord":{"lon":1.27831,"lat":51.936489}},

{"_id":2650629,"name":"County Durham","country":"GB","coord":{"lon":-1.57575,"lat":54.776798}},
{"_id":7293126,"name":"Great Aycliffe","country":"GB","coord":{"lon":-1.56598,"lat":54.613289}},
{"_id":2641555,"name":"Newton Aycliffe","country":"GB","coord":{"lon":-1.5719,"lat":54.61842}},
{"_id":2635937,"name":"Thrapston","country":"GB","coord":{"lon":-0.5392,"lat":52.396751}},

{"_id":7290645,"name":"Woking District","country":"GB","coord":{"lon":-0.55395,"lat":51.307018}},
{"_id":6693245,"name":"Knaphill","country":"GB","coord":{"lon":-0.61541,"lat":51.31892}},

{"_id":2634836,"name":"Walton","country":"GB","coord":{"lon":1.35,"lat":51.966671}},

{"_id":2655871,"name":"Beoley","country":"GB","coord":{"lon":-1.89608,"lat":52.323818}},

{"_id":2649452,"name":"Filton","country":"GB","coord":{"lon":-2.57616,"lat":51.50824}},

{"_id":2650479,"name":"Eastcote","country":"GB","coord":{"lon":-0.39737,"lat":51.576462}},
{"_id":2647721,"name":"Gwyddgrug","country":"GB","coord":{"lon":-4.2375,"lat":51.997219}},



{"_id":7290688,"name":"Lewes District","country":"GB","coord":{"lon":0.01088,"lat":50.877708}},
{"_id":2644559,"name":"Lewes","country":"GB","coord":{"lon":0.01133,"lat":50.873631}},

{"_id":7290552,"name":"Tewkesbury District","country":"GB","coord":{"lon":-2.07582,"lat":51.934502}},
{"_id":2636990,"name":"Staverton","country":"GB","coord":{"lon":-2.15778,"lat":51.911659}},

{"_id":7290603,"name":"Kettering District","country":"GB","coord":{"lon":-0.75846,"lat":52.437302}},
{"_id":2651311,"name":"Desborough","country":"GB","coord":{"lon":-0.82126,"lat":52.44183}},

{"_id":3209953,"name":"Overcombe","country":"GB","coord":{"lon":-2.43207,"lat":50.63509}},

{"_id":2637663,"name":"Slaugham","country":"GB","coord":{"lon":-0.20771,"lat":51.038589}},

{"_id":2654624,"name":"Broadwey","country":"GB","coord":{"lon":-2.46794,"lat":50.650688}},

{"_id":2657527,"name":"Aldringham","country":"GB","coord":{"lon":1.57757,"lat":52.193192}},

{"_id":7294636,"name":"Pelynt","country":"GB","coord":{"lon":-4.52916,"lat":50.367722}},
{"_id":2640508,"name":"Pelynt","country":"GB","coord":{"lon":-4.52274,"lat":50.365891}},

{"_id":2657473,"name":"Allington","country":"GB","coord":{"lon":0.51667,"lat":51.283329}},

{"_id":2656350,"name":"Bare","country":"GB","coord":{"lon":-2.83765,"lat":54.074348}},
{"_id":3333248,"name":"City and County of Swansea","country":"GB","coord":{"lon":-4,"lat":51.583328}},
{"_id":7297805,"name":"Mumbles","country":"GB","coord":{"lon":-4.00174,"lat":51.587059}},
{"_id":2640705,"name":"Oystermouth","country":"GB","coord":{"lon":-4.00508,"lat":51.575069}},

{"_id":7299921,"name":"Sandbach","country":"GB","coord":{"lon":-2.3651,"lat":53.13905}},
{"_id":2638600,"name":"Sandbach","country":"GB","coord":{"lon":-2.36251,"lat":53.145149}},

{"_id":3333147,"name":"Greenwich","country":"GB","coord":{"lon":0.05,"lat":51.450001}},
{"_id":2645726,"name":"Kidbrooke","country":"GB","coord":{"lon":0.02708,"lat":51.467232}},

{"_id":7290544,"name":"Harlow District","country":"GB","coord":{"lon":0.11266,"lat":51.765469}},
{"_id":2647461,"name":"Harlow","country":"GB","coord":{"lon":0.11158,"lat":51.77655}},

{"_id":2656947,"name":"Ashington","country":"GB","coord":{"lon":-0.39087,"lat":50.933121}},
{"_id":2645163,"name":"Knaresborough","country":"GB","coord":{"lon":-1.46851,"lat":54.009102}},

{"_id":2651561,"name":"Dalry","country":"GB","coord":{"lon":-4.71667,"lat":55.683331}},

{"_id":3333183,"name":"City of Portsmouth","country":"GB","coord":{"lon":-1.06667,"lat":50.799999}},
{"_id":6458610,"name":"Drayton","country":"GB","coord":{"lon":-1.0425,"lat":50.844921}},

{"_id":3333233,"name":"North Lanarkshire","country":"GB","coord":{"lon":-3.91667,"lat":55.866669}},
{"_id":2652877,"name":"Cleland","country":"GB","coord":{"lon":-3.9142,"lat":55.802429}},

{"_id":2641599,"name":"Newport","country":"GB","coord":{"lon":-1.29124,"lat":50.701462}},

{"_id":2647644,"name":"Hale","country":"GB","coord":{"lon":-0.78333,"lat":51.216671}},

{"_id":6269321,"name":"Wideopen","country":"GB","coord":{"lon":-1.62246,"lat":55.045139}},

{"_id":2639601,"name":"Raughton","country":"GB","coord":{"lon":-2.94961,"lat":54.819889}},

{"_id":3333242,"name":"Conwy","country":"GB","coord":{"lon":-3.75,"lat":53.083328}},
{"_id":7293065,"name":"Mochdre","country":"GB","coord":{"lon":-3.76117,"lat":53.284752}},
{"_id":2642401,"name":"Mochdre","country":"GB","coord":{"lon":-3.75,"lat":53.283329}},

{"_id":3345404,"name":"Bishop Sutton","country":"GB","coord":{"lon":-2.59472,"lat":51.334438}},

{"_id":7301029,"name":"Warminster","country":"GB","coord":{"lon":-2.17405,"lat":51.215111}},
{"_id":2634755,"name":"Warminster","country":"GB","coord":{"lon":-2.17873,"lat":51.204342}},

{"_id":2641238,"name":"Borough of North Tyneside","country":"GB","coord":{"lon":-1.5,"lat":55.033329}},
{"_id":2634032,"name":"Whitley Bay","country":"GB","coord":{"lon":-1.44713,"lat":55.03973}},

{"_id":6640031,"name":"Chilthorne Domer","country":"GB","coord":{"lon":-2.679,"lat":50.970779}},

{"_id":7290665,"name":"Copeland District","country":"GB","coord":{"lon":-3.37604,"lat":54.38747}},
{"_id":2639038,"name":"Rowrah","country":"GB","coord":{"lon":-3.45717,"lat":54.553699}},

{"_id":3333182,"name":"Borough of Poole","country":"GB","coord":{"lon":-1.96667,"lat":50.73333}},

{"_id":3333245,"name":"Neath Port Talbot","country":"GB","coord":{"lon":-3.75,"lat":51.666672}},
{"_id":7299858,"name":"Briton Ferry","country":"GB","coord":{"lon":-3.80663,"lat":51.634979}},
{"_id":2654668,"name":"Briton Ferry","country":"GB","coord":{"lon":-3.81898,"lat":51.631062}},



{"_id":3333145,"name":"Ealing","country":"GB","coord":{"lon":-0.3023,"lat":51.512821}},
{"_id":2636565,"name":"Sudbury","country":"GB","coord":{"lon":-0.32358,"lat":51.555248}},
{"_id":7297446,"name":"Cold Ash","country":"GB","coord":{"lon":-1.27995,"lat":51.429779}},
{"_id":2652617,"name":"Cold Ash","country":"GB","coord":{"lon":-1.26463,"lat":51.424259}},

{"_id":2655785,"name":"Beverley","country":"GB","coord":{"lon":-0.42332,"lat":53.845871}},

{"_id":2650042,"name":"Eltham","country":"GB","coord":{"lon":0.05225,"lat":51.450611}},

{"_id":7300087,"name":"Lynesack and Softley","country":"GB","coord":{"lon":-1.85208,"lat":54.63538}},
{"_id":2652397,"name":"Copley","country":"GB","coord":{"lon":-1.86974,"lat":54.623772}},
{"_id":2654896,"name":"Brandon","country":"GB","coord":{"lon":0.62382,"lat":52.447739}},

{"_id":2633996,"name":"Whixall","country":"GB","coord":{"lon":-2.72097,"lat":52.905399}},

{"_id":7290574,"name":"Tonbridge and Malling District","country":"GB","coord":{"lon":0.36528,"lat":51.271179}},
{"_id":2635703,"name":"Tonbridge","country":"GB","coord":{"lon":0.27532,"lat":51.192421}},

{"_id":7290667,"name":"South Lakeland District","country":"GB","coord":{"lon":-2.79018,"lat":54.271912}},
{"_id":2639164,"name":"Roosebeck","country":"GB","coord":{"lon":-3.13333,"lat":54.099998}},
{"_id":7290610,"name":"Ryedale District","country":"GB","coord":{"lon":-0.84037,"lat":54.19825}},
{"_id":2650829,"name":"Duggleby","country":"GB","coord":{"lon":-0.65908,"lat":54.092239}},

{"_id":2640923,"name":"Orkney Islands","country":"GB","coord":{"lon":-3,"lat":59}},
{"_id":2640895,"name":"Orphir","country":"GB","coord":{"lon":-3.13108,"lat":58.938091}},

{"_id":2637080,"name":"Stanground","country":"GB","coord":{"lon":-0.2211,"lat":52.554359}},
{"_id":2656164,"name":"Battersby","country":"GB","coord":{"lon":-1.07958,"lat":54.458961}},

{"_id":2638019,"name":"Sheringham","country":"GB","coord":{"lon":1.20931,"lat":52.940781}},

{"_id":2650628,"name":"Durham","country":"GB","coord":{"lon":-1.57566,"lat":54.77676}},

{"_id":7290666,"name":"Eden District","country":"GB","coord":{"lon":-2.62522,"lat":54.60548}},
{"_id":2648174,"name":"Great Asby","country":"GB","coord":{"lon":-2.49098,"lat":54.514511}},

{"_id":2641896,"name":"Nantlle","country":"GB","coord":{"lon":-4.22513,"lat":53.05674}},
{"_id":7290550,"name":"Forest of Dean District","country":"GB","coord":{"lon":-2.53647,"lat":51.80479}},
{"_id":2652997,"name":"Cinderford","country":"GB","coord":{"lon":-2.4987,"lat":51.824211}},

{"_id":7290676,"name":"Mid Devon District","country":"GB","coord":{"lon":-3.53294,"lat":50.867981}},
{"_id":2633916,"name":"Willand","country":"GB","coord":{"lon":-3.36667,"lat":50.883331}},

{"_id":2642940,"name":"Marton","country":"GB","coord":{"lon":-1.20257,"lat":54.529099}},

{"_id":2650732,"name":"Dunfermline","country":"GB","coord":{"lon":-3.45887,"lat":56.07156}},

{"_id":7297657,"name":"Latton","country":"GB","coord":{"lon":-1.84421,"lat":51.653542}},
{"_id":6940297,"name":"Latton","country":"GB","coord":{"lon":-1.87057,"lat":51.658909}},

{"_id":6947735,"name":"Copt Oak","country":"GB","coord":{"lon":-1.29055,"lat":52.712799}},

{"_id":2640298,"name":"Pierowall","country":"GB","coord":{"lon":-2.99051,"lat":59.319439}},

{"_id":7290598,"name":"Norwich District","country":"GB","coord":{"lon":1.37233,"lat":52.620152}},
{"_id":6620355,"name":"Bowthorpe","country":"GB","coord":{"lon":1.21885,"lat":52.63884}},

{"_id":2633708,"name":"Wokingham","country":"GB","coord":{"lon":-0.83565,"lat":51.411201}},
{"_id":2633484,"name":"Wrexham","country":"GB","coord":{"lon":-3,"lat":53}},
{"_id":2635475,"name":"Trevor","country":"GB","coord":{"lon":-3.09555,"lat":52.9743}},

{"_id":7290581,"name":"Preston District","country":"GB","coord":{"lon":-2.70932,"lat":53.82188}},
{"_id":2639912,"name":"Preston","country":"GB","coord":{"lon":-2.71667,"lat":53.76667}},

{"_id":2635833,"name":"Tilehurst","country":"GB","coord":{"lon":-1.0437,"lat":51.45647}},

{"_id":7290592,"name":"South Kesteven District","country":"GB","coord":{"lon":-0.5068,"lat":52.849739}},
{"_id":2643029,"name":"Market Deeping","country":"GB","coord":{"lon":-0.31629,"lat":52.67654}},

{"_id":2648150,"name":"Great Brickhill","country":"GB","coord":{"lon":-0.68753,"lat":51.966221}},

{"_id":7291055,"name":"Box","country":"GB","coord":{"lon":-2.24978,"lat":51.421181}},
{"_id":2655046,"name":"Box","country":"GB","coord":{"lon":-2.24556,"lat":51.414719}},

{"_id":2646073,"name":"Inverurie","country":"GB","coord":{"lon":-2.37736,"lat":57.284458}},

{"_id":7290587,"name":"Melton District","country":"GB","coord":{"lon":-0.8538,"lat":52.811409}},
{"_id":2656229,"name":"Barsby","country":"GB","coord":{"lon":-0.96801,"lat":52.695492}},
{"_id":2655467,"name":"Blackmill","country":"GB","coord":{"lon":-2.88333,"lat":57.150002}},

{"_id":3333195,"name":"Borough of Solihull","country":"GB","coord":{"lon":-1.75,"lat":52.416672}},
{"_id":7301178,"name":"Hampton in Arden","country":"GB","coord":{"lon":-1.71563,"lat":52.430439}},
{"_id":2637546,"name":"Solihull","country":"GB","coord":{"lon":-1.78094,"lat":52.414261}},

{"_id":2646842,"name":"Hinton Saint George","country":"GB","coord":{"lon":-2.8,"lat":50.900002}},

{"_id":7291789,"name":"Whippingham","country":"GB","coord":{"lon":-1.26317,"lat":50.735142}},
{"_id":2634150,"name":"Whippingham","country":"GB","coord":{"lon":-1.26862,"lat":50.737469}},

{"_id":2642214,"name":"Morecambe","country":"GB","coord":{"lon":-2.86108,"lat":54.068352}},

{"_id":2643116,"name":"Mangotsfield","country":"GB","coord":{"lon":-2.50403,"lat":51.487801}},

{"_id":2647497,"name":"Hardingstone","country":"GB","coord":{"lon":-0.88582,"lat":52.213581}},

{"_id":2650122,"name":"Elgin","country":"GB","coord":{"lon":-3.33333,"lat":57.650002}},

{"_id":2633709,"name":"Woking","country":"GB","coord":{"lon":-0.55893,"lat":51.319031}},

{"_id":2647730,"name":"Monmouth","country":"GB","coord":{"lon":-2.70853,"lat":51.81842}},
{"_id":2642313,"name":"Monmouth","country":"GB","coord":{"lon":-2.71363,"lat":51.812649}},

{"_id":2651656,"name":"Cwmafan","country":"GB","coord":{"lon":-3.75,"lat":51.599998}},
{"_id":2641648,"name":"New Forest","country":"GB","coord":{"lon":-1.6,"lat":50.833328}},
{"_id":2636408,"name":"Sway","country":"GB","coord":{"lon":-1.60294,"lat":50.78685}},
{"_id":2647655,"name":"Hailsham","country":"GB","coord":{"lon":0.25775,"lat":50.862202}},

{"_id":2646525,"name":"Houghton-le-Spring","country":"GB","coord":{"lon":-1.46427,"lat":54.84034}},
{"_id":2651852,"name":"Crowborough","country":"GB","coord":{"lon":0.16171,"lat":51.06044}},

{"_id":2633910,"name":"Willerby","country":"GB","coord":{"lon":-0.45,"lat":54.183331}},
{"_id":2656223,"name":"Bartley","country":"GB","coord":{"lon":-1.56553,"lat":50.914398}},

{"_id":7290629,"name":"Newcastle-under-Lyme District","country":"GB","coord":{"lon":-2.32455,"lat":52.994598}},
{"_id":2656792,"name":"Audley","country":"GB","coord":{"lon":-2.3,"lat":53.049999}},

{"_id":2646389,"name":"Huntingfield","country":"GB","coord":{"lon":1.435,"lat":52.312679}},
{"_id":2650332,"name":"East Stour","country":"GB","coord":{"lon":-2.28501,"lat":51.00761}},

{"_id":7290551,"name":"Gloucester District","country":"GB","coord":{"lon":-2.23795,"lat":51.845982}},
{"_id":6695204,"name":"Barnwood","country":"GB","coord":{"lon":-2.20087,"lat":51.86393}},

{"_id":2650503,"name":"East Barming","country":"GB","coord":{"lon":0.46667,"lat":51.25}},

{"_id":7300104,"name":"Borrowdale","country":"GB","coord":{"lon":-3.15327,"lat":54.523418}},
{"_id":7729779,"name":"Manesty","country":"GB","coord":{"lon":-3.15788,"lat":54.559719}},
{"_id":2634372,"name":"West Lancashire District","country":"GB","coord":{"lon":-2.88693,"lat":53.610981}},
{"_id":2635588,"name":"Town Green","country":"GB","coord":{"lon":-2.9,"lat":53.549999}},
{"_id":2649292,"name":"Flixton","country":"GB","coord":{"lon":-2.38333,"lat":53.450001}},

{"_id":2650830,"name":"Dufton","country":"GB","coord":{"lon":-2.48219,"lat":54.61935}},

{"_id":3333128,"name":"Borough of Bolton","country":"GB","coord":{"lon":-2.5,"lat":53.583328}},
{"_id":7300546,"name":"Westhoughton","country":"GB","coord":{"lon":-2.52782,"lat":53.550999}},
{"_id":2634387,"name":"Westhoughton","country":"GB","coord":{"lon":-2.52464,"lat":53.548988}},

{"_id":2641133,"name":"Oadby and Wigston","country":"GB","coord":{"lon":-1.09294,"lat":52.587101}},
{"_id":7302141,"name":"South Wigston","country":"GB","coord":{"lon":-1.1345,"lat":52.583118}},

{"_id":3333135,"name":"Bromley","country":"GB","coord":{"lon":0.01167,"lat":51.414749}},
{"_id":6693937,"name":"Crystal Palace","country":"GB","coord":{"lon":-0.07854,"lat":51.419338}},

{"_id":2655094,"name":"Bournville","country":"GB","coord":{"lon":-1.91667,"lat":52.416672}},

{"_id":2635128,"name":"Upper Hale","country":"GB","coord":{"lon":-0.79874,"lat":51.23468}},

{"_id":3333155,"name":"Hounslow","country":"GB","coord":{"lon":-0.36469,"lat":51.467701}},
{"_id":2646517,"name":"Hounslow","country":"GB","coord":{"lon":-0.36092,"lat":51.468391}},

{"_id":7293451,"name":"Burstwick","country":"GB","coord":{"lon":-0.1455,"lat":53.746658}},
{"_id":2654220,"name":"Burstwick","country":"GB","coord":{"lon":-0.13956,"lat":53.732109}},

{"_id":3333206,"name":"Sutton","country":"GB","coord":{"lon":-0.1926,"lat":51.358349}},
{"_id":2634867,"name":"Wallington","country":"GB","coord":{"lon":-0.15,"lat":51.349998}},
{"_id":7290569,"name":"Watford District","country":"GB","coord":{"lon":-0.40263,"lat":51.66906}},
{"_id":2648828,"name":"Garston","country":"GB","coord":{"lon":-0.38333,"lat":51.683331}},

{"_id":2652861,"name":"Clevedon","country":"GB","coord":{"lon":-2.85745,"lat":51.440571}},

{"_id":2642201,"name":"Moretonhampstead","country":"GB","coord":{"lon":-3.76495,"lat":50.66077}},

{"_id":7297091,"name":"Bayston Hill","country":"GB","coord":{"lon":-2.76039,"lat":52.66991}},
{"_id":2656129,"name":"Bayston Hill","country":"GB","coord":{"lon":-2.77216,"lat":52.67638}},

{"_id":6615542,"name":"Thorpe Hamlet","country":"GB","coord":{"lon":1.31337,"lat":52.630322}},

{"_id":2646463,"name":"Hucclecote","country":"GB","coord":{"lon":-2.18784,"lat":51.853619}},

{"_id":2637914,"name":"Shorncliffe Camp","country":"GB","coord":{"lon":1.15,"lat":51.083328}},
{"_id":2637034,"name":"Stanwick","country":"GB","coord":{"lon":-0.56348,"lat":52.331982}},
{"_id":2643064,"name":"Marchwood","country":"GB","coord":{"lon":-1.4544,"lat":50.88966}},

{"_id":2639096,"name":"Rother District","country":"GB","coord":{"lon":0.65,"lat":50.950001}},
{"_id":2655777,"name":"Bexhill-on-Sea","country":"GB","coord":{"lon":0.47095,"lat":50.850231}},

{"_id":3333168,"name":"Borough of Luton","country":"GB","coord":{"lon":-0.42793,"lat":51.891102}},
{"_id":2643339,"name":"Luton","country":"GB","coord":{"lon":-0.41748,"lat":51.879669}},

{"_id":7290573,"name":"Swale District","country":"GB","coord":{"lon":0.81066,"lat":51.336201}},
{"_id":2647699,"name":"Hackington","country":"GB","coord":{"lon":1.07228,"lat":51.30508}},

{"_id":3333122,"name":"Borough of Barnsley","country":"GB","coord":{"lon":-1.5,"lat":53.533329}},
{"_id":7291583,"name":"Silkstone","country":"GB","coord":{"lon":-1.56578,"lat":53.541111}},
{"_id":2637841,"name":"Silkstone","country":"GB","coord":{"lon":-1.56381,"lat":53.54808}},

{"_id":2655902,"name":"Bengeworth","country":"GB","coord":{"lon":-1.93457,"lat":52.090279}},

{"_id":2647478,"name":"Hargrave","country":"GB","coord":{"lon":-0.46667,"lat":52.316669}},

{"_id":2640729,"name":"Oxford","country":"GB","coord":{"lon":-1.25596,"lat":51.75222}},

{"_id":7294373,"name":"Budock","country":"GB","coord":{"lon":-5.11785,"lat":50.144051}},
{"_id":2654375,"name":"Budock Water","country":"GB","coord":{"lon":-5.10351,"lat":50.145329}},

{"_id":2641552,"name":"Newton Ferrers","country":"GB","coord":{"lon":-4.0392,"lat":50.314671}},